$GPRMC,100000,A,3801.4048388010249369,N,110.239835467864102,W,,54.89999999999998,010113,0,E*6F
$GPRMC,100001,A,3801.404900470823378,N,110.23964416746393,W,,56.5,010113,0,E*50
$GPRMC,100002,A,3801.404695755623493,N,110.23917855186252,W,,55.30000000000001,010113,0,E*65
$GPRMC,100003,A,3801.4045814574240012,N,110.238913469462876,W,,54.69999999999999,010113,0,E*6B
$GPRMC,100004,A,3801.4050544446239144,N,110.239127837463613,W,,56.0,010113,0,E*54
$GPRMC,100005,A,3801.40569716822327,N,110.238553281662037,W,,54.60000000000002,010113,0,E*6A
$GPRMC,100006,A,3801.4067666526231903,N,110.237748817261716,W,,59.30000000000001,010113,0,E*6B
$GPRMC,100007,A,3801.4080930858243335,N,110.236525991461898,W,,58.10000000000002,010113,0,E*69
$GPRMC,100008,A,3801.4097980086239659,N,110.235261589861917,W,,57.80000000000002,010113,0,E*6F
$GPRMC,100009,A,3801.4117497366238752,N,110.233499299260496,W,,54.30000000000001,010113,0,E*6F
$GPRMC,100010,A,3801.4117497366238752,N,110.233499299260496,W,,47.19999999999999,010113,0,E*6F
$GPRMC,100011,A,3801.4138025460236747,N,110.231099785859827,W,,43.5,010113,0,E*54
$GPRMC,100012,A,3801.4159282770252446,N,110.228318110257423,W,,38.89999999999998,010113,0,E*60
$GPRMC,100013,A,3801.4180486554239735,N,110.225079453056747,W,,35.69999999999999,010113,0,E*62
$GPRMC,100014,A,3801.4203954582247036,N,110.221760088655403,W,,36.69999999999999,010113,0,E*65
$GPRMC,100015,A,3801.4227256590237403,N,110.21833696205324,W,,43.5,010113,0,E*64
$GPRMC,100016,A,3801.4250458824248824,N,110.21490891545195,W,,44.30000000000001,010113,0,E*5B
$GPRMC,100017,A,3801.4272684264246038,N,110.21137775344895,W,,44.80000000000001,010113,0,E*54
$GPRMC,100018,A,3801.4296954906245674,N,110.20779519184793,W,,43.10000000000002,010113,0,E*5E
$GPRMC,100019,A,3801.4296954906245674,N,110.20779519184793,W,,45.30000000000001,010113,0,E*58
$GPRMC,100020,A,3801.4324541922240996,N,110.203889655045435,W,,47.0,010113,0,E*59
$GPRMC,100021,A,3801.4353412914246633,N,110.199467967643972,W,,46.19999999999999,010113,0,E*69
$GPRMC,100022,A,3801.4389540222248343,N,110.195178518441512,W,,50.30000000000001,010113,0,E*6D
$GPRMC,100023,A,3801.4424807586240718,N,110.190484579239772,W,,46.10000000000002,010113,0,E*66
$GPRMC,100024,A,3801.4456947312248758,N,110.18544274143693,W,,48.00000000000001,010113,0,E*5C
$GPRMC,100025,A,3801.4490232480248721,N,110.180589858034281,W,,48.5,010113,0,E*5B
$GPRMC,100026,A,3801.4524046722253559,N,110.176376709032859,W,,46.10000000000002,010113,0,E*6E
$GPRMC,100027,A,3801.4554112140248776,N,110.172577351830583,W,,43.10000000000002,010113,0,E*60
$GPRMC,100028,A,3801.456446872224717,N,110.16792527582863,W,,25.80000000000001,010113,0,E*69
$GPRMC,100029,A,3801.456375183624914,N,110.163554895626747,W,,353.3,010113,0,E*52
$GPRMC,100030,A,3801.456375183624914,N,110.163554895626747,W,,323.2,010113,0,E*5C
$GPRMC,100031,A,3801.4551189060247793,N,110.159604292225373,W,,302.9,010113,0,E*6C
$GPRMC,100032,A,3801.4528379580242756,N,110.156647367424094,W,,286.0,010113,0,E*61
$GPRMC,100033,A,3801.449564342424452,N,110.154614378423323,W,,281.9,010113,0,E*5D
$GPRMC,100034,A,3801.4459296180237402,N,110.153308641622814,W,,283.09999999999997,010113,0,E*58
$GPRMC,100035,A,3801.4417098936245054,N,110.15077701422018,W,,283.8,010113,0,E*5C
$GPRMC,100036,A,3801.4363231572239954,N,110.14780602781963,W,,283.2,010113,0,E*5D
$GPRMC,100037,A,3801.432561247222992,N,110.145905076617794,W,,283.3,010113,0,E*52
$GPRMC,100038,A,3801.4279731378229599,N,110.143613691616613,W,,281.9,010113,0,E*60
$GPRMC,100039,A,3801.4279731378229599,N,110.143613691616613,W,,283.9,010113,0,E*63
$GPRMC,100040,A,3801.4233854850228056,N,110.141217676216234,W,,283.7,010113,0,E*69
$GPRMC,100041,A,3801.4188647388236575,N,110.138747680215037,W,,283.7,010113,0,E*67
$GPRMC,100042,A,3801.4143043176224523,N,110.136377793013796,W,,282.7,010113,0,E*61
$GPRMC,100043,A,3801.4106423484220443,N,110.13435562801352,W,,282.4,010113,0,E*57
$GPRMC,100044,A,3801.4073632422228854,N,110.13260468881156,W,,282.7,010113,0,E*5F
$GPRMC,100045,A,3801.405017916622171,N,110.13132380461136,W,,284.2,010113,0,E*66
$GPRMC,100046,A,3801.4034248752220435,N,110.130332392211931,W,,282.0,010113,0,E*69
$GPRMC,100047,A,3801.4021607934228086,N,110.129755357810964,W,,283.09999999999997,010113,0,E*50
$GPRMC,100048,A,3801.4010174904217365,N,110.129616248410684,W,,283.5,010113,0,E*69
$GPRMC,100049,A,3801.4010174904217365,N,110.129616248410684,W,,281.4,010113,0,E*6B
$GPRMC,100050,A,3801.3990853170218998,N,110.128354309209708,W,,282.7,010113,0,E*68
$GPRMC,100051,A,3801.396568342822917,N,110.127092398809534,W,,282.2,010113,0,E*58
$GPRMC,100052,A,3801.3938504412212183,N,110.125920978008413,W,,281.9,010113,0,E*61
$GPRMC,100053,A,3801.3907279122210525,N,110.12413074600917,W,,281.7,010113,0,E*59
$GPRMC,100054,A,3801.3875351484213638,N,110.122621713007455,W,,282.5,010113,0,E*68
$GPRMC,100055,A,3801.3840401862218243,N,110.120649570607402,W,,283.3,010113,0,E*62
$GPRMC,100056,A,3801.3804962280214284,N,110.118724821606367,W,,282.6,010113,0,E*61
$GPRMC,100057,A,3801.3767420610209058,N,110.11676816040529,W,,282.5,010113,0,E*52
$GPRMC,100058,A,3801.372880848620639,N,110.114803606204386,W,,281.8,010113,0,E*5D
$GPRMC,100059,A,3801.372880848620639,N,110.114803606204386,W,,281.5,010113,0,E*51
$GPRMC,100100,A,3801.3687462264203987,N,110.112572234402242,W,,281.5,010113,0,E*6A
$GPRMC,100101,A,3801.3642237894201514,N,110.10999718140161,W,,281.5,010113,0,E*55
$GPRMC,100102,A,3801.3602405670197015,N,110.108162071800479,W,,279.7,010113,0,E*61
$GPRMC,100103,A,3801.3561592242206189,N,110.106471453599312,W,,278.5,010113,0,E*6A
$GPRMC,100104,A,3801.3521055132187598,N,110.104905456599118,W,,276.5,010113,0,E*62
$GPRMC,100105,A,3801.3481739694195483,N,110.104871195999653,W,,275.3,010113,0,E*6F
$GPRMC,100106,A,3801.3444533688196714,N,110.102995799998133,W,,273.9,010113,0,E*65
$GPRMC,100107,A,3801.3444533688196714,N,110.102995799998133,W,,292.9,010113,0,E*6B
$GPRMC,100108,A,3801.3402816120189698,N,110.102324268598593,W,,271.8,010113,0,E*67
$GPRMC,100109,A,3801.336604780218238,N,110.101968454798289,W,,263.8,010113,0,E*54
$GPRMC,100110,A,3801.3332739624185308,N,110.10188079539795,W,,275.1,010113,0,E*5D
$GPRMC,100111,A,3801.3301762740185552,N,110.101608175197683,W,,277.3,010113,0,E*6D
$GPRMC,100112,A,3801.3276644328186649,N,110.101599279597679,W,,278.2,010113,0,E*61
$GPRMC,100113,A,3801.3256753098181662,N,110.101449723597362,W,,287.5,010113,0,E*6D
$GPRMC,100114,A,3801.3242870460183553,N,110.101785559198358,W,,268.3,010113,0,E*68
$GPRMC,100115,A,3801.3242870460183553,N,110.101785559198358,W,,269.3,010113,0,E*68
$GPRMC,100116,A,3801.323577873018138,N,110.10223553699786,W,,270.1,010113,0,E*69
$GPRMC,100117,A,3801.3224486898182874,N,110.10196500479735,W,,271.1,010113,0,E*5A
$GPRMC,100118,A,3801.3215905734188027,N,110.102033771998112,W,,271.6,010113,0,E*62
$GPRMC,100119,A,3801.3211661286182164,N,110.10193505699839,W,,270.6,010113,0,E*5D
$GPRMC,100120,A,3801.3207714150183847,N,110.101969451397625,W,,271.5,010113,0,E*64
$GPRMC,100121,A,3801.3207560868184487,N,110.102327785198577,W,,271.1,010113,0,E*65
$GPRMC,100122,A,3801.3207348864185064,N,110.101738716598678,W,,271.0,010113,0,E*64
$GPRMC,100123,A,3801.3207348864185064,N,110.101738716598678,W,,271.8,010113,0,E*6D
$GPRMC,100124,A,3801.3209394660178475,N,110.102362974597998,W,,271.2,010113,0,E*6F
$GPRMC,100125,A,3801.3208602828183302,N,110.102532294597992,W,,271.1,010113,0,E*6B
$GPRMC,100126,A,3801.3207369828185733,N,110.102682484798642,W,,271.1,010113,0,E*6F
$GPRMC,100127,A,3801.3206454708182491,N,110.102725720199182,W,,271.2,010113,0,E*69
$GPRMC,100128,A,3801.320672017817941,N,110.102790773397716,W,,271.1,010113,0,E*56
$GPRMC,100129,A,3801.3207623616182218,N,110.102852497797787,W,,270.8,010113,0,E*6D
$GPRMC,100130,A,3801.3207483906182915,N,110.102637148197555,W,,271.1,010113,0,E*6C
$GPRMC,100131,A,3801.3207483906182915,N,110.102637148197555,W,,270.7,010113,0,E*6A
$GPRMC,100132,A,3801.320713278617518,N,110.102560728598228,W,,270.7,010113,0,E*5B
$GPRMC,100133,A,3801.3206530902184,N,110.102473760998052,W,,271.1,010113,0,E*53
$GPRMC,100134,A,3801.3206966610182747,N,110.102250509397486,W,,270.9,010113,0,E*6E
$GPRMC,100135,A,3801.3207380046183914,N,110.10210259979865,W,,270.8,010113,0,E*5E
$GPRMC,100136,A,3801.3205801968180708,N,110.101890425398455,W,,271.2,010113,0,E*67
$GPRMC,100137,A,3801.3205325208186025,N,110.101865708398542,W,,271.5,010113,0,E*6E
$GPRMC,100138,A,3801.3206367138184305,N,110.101939448398035,W,,271.2,010113,0,E*6A
$GPRMC,100139,A,3801.320605045218315,N,110.102230440598824,W,,270.4,010113,0,E*50
$GPRMC,100140,A,3801.320605045218315,N,110.102230440598824,W,,270.4,010113,0,E*5E
$GPRMC,100141,A,3801.320514889218316,N,110.102141436598027,W,,269.5,010113,0,E*51
$GPRMC,100142,A,3801.3201867756184527,N,110.10174267779814,W,,269.5,010113,0,E*56
$GPRMC,100143,A,3801.320249020817954,N,110.101782842397347,W,,271.3,010113,0,E*58
$GPRMC,100144,A,3801.3202625226183784,N,110.10184030799865,W,,270.3,010113,0,E*5C
$GPRMC,100145,A,3801.3202653894174432,N,110.102247043197824,W,,269.8,010113,0,E*6D
$GPRMC,100146,A,3801.3199662204189622,N,110.102143348197878,W,,270.3,010113,0,E*6A
$GPRMC,100147,A,3801.3189975558191236,N,110.102019402598694,W,,271.7,010113,0,E*60
$GPRMC,100148,A,3801.3189975558191236,N,110.102019402598694,W,,270.7,010113,0,E*6E
$GPRMC,100149,A,3801.3173872404176734,N,110.102004784197618,W,,271.3,010113,0,E*61
$GPRMC,100150,A,3801.315290143817407,N,110.102167456798647,W,,269.4,010113,0,E*50
$GPRMC,100151,A,3801.3126203118181934,N,110.102450827199032,W,,273.8,010113,0,E*60
$GPRMC,100152,A,3801.309116298618278,N,110.101960171197364,W,,277.7,010113,0,E*55
$GPRMC,100153,A,3801.305788185617729,N,110.100677077798302,W,,284.4,010113,0,E*51
$GPRMC,100154,A,3801.3026998044172444,N,110.09808251339587,W,,293.0,010113,0,E*56
$GPRMC,100155,A,3801.3003838416173608,N,110.09446139099527,W,,306.6,010113,0,E*50
$GPRMC,100156,A,3801.2990649168169455,N,110.089595440791875,W,,322.8,010113,0,E*65
$GPRMC,100157,A,3801.2990649168169455,N,110.089595440791875,W,,325.9,010113,0,E*62
$GPRMC,100158,A,3801.2980161030178294,N,110.084039543989745,W,,325.4,010113,0,E*6C
$GPRMC,100159,A,3801.2965169556166245,N,110.077806880787188,W,,326.4,010113,0,E*66
$GPRMC,100200,A,3801.2949248706166827,N,110.071144536582706,W,,325.2,010113,0,E*65
$GPRMC,100201,A,3801.2929157670166092,N,110.063993243379468,W,,321.5,010113,0,E*67
$GPRMC,100202,A,3801.2907942372167724,N,110.056592152176558,W,,319.5,010113,0,E*64
$GPRMC,100203,A,3801.2886983814159692,N,110.049417959372358,W,,316.1,010113,0,E*60
$GPRMC,100204,A,3801.286312152016933,N,110.042526332969487,W,,313.4,010113,0,E*52
$GPRMC,100205,A,3801.286312152016933,N,110.042526332969487,W,,309.8,010113,0,E*54
$GPRMC,100206,A,3801.2835085680160319,N,110.036096741967025,W,,307.2,010113,0,E*6B
$GPRMC,100207,A,3801.280271788814673,N,110.029759316963034,W,,303.4,010113,0,E*55
$GPRMC,100208,A,3801.2768754072152433,N,110.023923465560042,W,,301.3,010113,0,E*67
$GPRMC,100209,A,3801.2737901286153885,N,110.019338060959143,W,,300.0,010113,0,E*67
$GPRMC,100210,A,3801.2714184252155292,N,110.016015417557632,W,,298.8,010113,0,E*64
$GPRMC,100211,A,3801.2699043936146381,N,110.014698497357223,W,,296.9,010113,0,E*67
$GPRMC,100212,A,3801.2688616362146377,N,110.013141844755111,W,,297.6,010113,0,E*6C
$GPRMC,100213,A,3801.2688616362146377,N,110.013141844755111,W,,297.2,010113,0,E*69
$GPRMC,100214,A,3801.267470573414755,N,110.01142375735439,W,,294.9,010113,0,E*63
$GPRMC,100215,A,3801.265479712814539,N,110.009192087354393,W,,292.7,010113,0,E*5F
$GPRMC,100216,A,3801.2631807354144087,N,110.006956296552216,W,,290.6,010113,0,E*66
$GPRMC,100217,A,3801.2602059336143157,N,110.003679389351987,W,,289.7,010113,0,E*6C
$GPRMC,100218,A,3801.257134668014288,N,110.001188047149224,W,,287.3,010113,0,E*5A
$GPRMC,100219,A,3801.2535865344142394,N,109.998512254748345,W,,285.5,010113,0,E*61
$GPRMC,100220,A,3801.2501592900136416,N,109.99632271194789,W,,284.3,010113,0,E*57
$GPRMC,100221,A,3801.2456268540131532,N,109.993146969545773,W,,283.09999999999997,010113,0,E*54
$GPRMC,100222,A,3801.241820249413621,N,109.99110609234572,W,,281.9,010113,0,E*6E
$GPRMC,100223,A,3801.241820249413621,N,109.99110609234572,W,,279.9,010113,0,E*68
$GPRMC,100224,A,3801.2377854966133839,N,109.989110888944746,W,,279.2,010113,0,E*61
$GPRMC,100225,A,3801.2339411370128062,N,109.987410487143142,W,,277.1,010113,0,E*6E
$GPRMC,100226,A,3801.2309491044118204,N,109.986374139543646,W,,277.2,010113,0,E*63
$GPRMC,100227,A,3801.2287948218133238,N,109.9857902909429,W,,275.7,010113,0,E*6B
$GPRMC,100228,A,3801.2266437408129605,N,109.98499379694261,W,,276.5,010113,0,E*58
$GPRMC,100229,A,3801.2244050148126462,N,109.984375915142834,W,,276.4,010113,0,E*67
$GPRMC,100230,A,3801.221787754812027,N,109.983765069542518,W,,273.7,010113,0,E*52
$GPRMC,100231,A,3801.221787754812027,N,109.983765069542518,W,,273.9,010113,0,E*5D
$GPRMC,100232,A,3801.2192929890113646,N,109.983625144141332,W,,272.1,010113,0,E*68
$GPRMC,100233,A,3801.2161948998124217,N,109.983181601942285,W,,270.6,010113,0,E*63
$GPRMC,100234,A,3801.213337746011831,N,109.983090171541527,W,,271.7,010113,0,E*57
$GPRMC,100235,A,3801.2096361828120905,N,109.982934901740803,W,,268.8,010113,0,E*6C
$GPRMC,100236,A,3801.2056441314122424,N,109.98305848734217,W,,269.59999999999997,010113,0,E*6F
$GPRMC,100237,A,3801.2013595932121746,N,109.983708106741203,W,,266.7,010113,0,E*69
$GPRMC,100238,A,3801.19678098841149,N,109.98451244214226,W,,265.8,010113,0,E*56
$GPRMC,100239,A,3801.19678098841149,N,109.98451244214226,W,,263.9,010113,0,E*50
$GPRMC,100240,A,3801.1919400888109521,N,109.985459562542554,W,,263.0,010113,0,E*6C
$GPRMC,100241,A,3801.1870426752109609,N,109.986985283343547,W,,259.3,010113,0,E*6E
$GPRMC,100242,A,3801.181614697811142,N,109.989353006345475,W,,258.3,010113,0,E*5E
$GPRMC,100243,A,3801.1758237528106008,N,109.992456388745389,W,,257.6,010113,0,E*69
$GPRMC,100244,A,3801.17011234920966,N,109.996204964347953,W,,254.8,010113,0,E*69
$GPRMC,100245,A,3801.1640005926103925,N,110.000792927949892,W,,258.2,010113,0,E*63
$GPRMC,100246,A,3801.157228537210102,N,110.004307643351638,W,,263.4,010113,0,E*5F
$GPRMC,100247,A,3801.1503825678097712,N,110.00560847515294,W,,272.8,010113,0,E*5E
$GPRMC,100248,A,3801.1503825678097712,N,110.00560847515294,W,,272.9,010113,0,E*50
$GPRMC,100249,A,3801.1434504216097707,N,110.005011377352417,W,,270.9,010113,0,E*66
$GPRMC,100250,A,3801.1367875188085463,N,110.004537034152406,W,,269.4,010113,0,E*61
$GPRMC,100251,A,3801.1304032974091172,N,110.004763574352271,W,,267.2,010113,0,E*6B
$GPRMC,100252,A,3801.1249076820091375,N,110.005997233153172,W,,266.7,010113,0,E*62
$GPRMC,100253,A,3801.117611161208032,N,110.005796550553434,W,,268.4,010113,0,E*50
$GPRMC,100254,A,3801.1113056064071714,N,110.006282243353812,W,,266.2,010113,0,E*6C
$GPRMC,100255,A,3801.1053468030078761,N,110.00712189415398,W,,266.2,010113,0,E*58
$GPRMC,100256,A,3801.1003666584073812,N,110.009504194755756,W,,266.6,010113,0,E*6D
$GPRMC,100257,A,3801.1003666584073812,N,110.009504194755756,W,,265.09999999999997,010113,0,E*5E
$GPRMC,100258,A,3801.0953927718077239,N,110.010989011156376,W,,265.2,010113,0,E*6D
$GPRMC,100259,A,3801.0904189638080197,N,110.012781554955982,W,,265.3,010113,0,E*65
$GPRMC,100300,A,3801.0848776440073493,N,110.013486178156077,W,,265.9,010113,0,E*6A
$GPRMC,100301,A,3801.079338918006414,N,110.014482553756888,W,,266.5,010113,0,E*5D
$GPRMC,100302,A,3801.0741841350063908,N,110.015976405558295,W,,265.5,010113,0,E*6E
$GPRMC,100303,A,3801.0691337346064245,N,110.017111007359286,W,,264.9,010113,0,E*6E
$GPRMC,100304,A,3801.0641847030069584,N,110.018341142358832,W,,266.4,010113,0,E*6E
$GPRMC,100305,A,3801.0641847030069584,N,110.018341142358832,W,,265.09999999999997,010113,0,E*5F
$GPRMC,100306,A,3801.0592980426058318,N,110.01980789515958,W,,264.2,010113,0,E*51
$GPRMC,100307,A,3801.0545045100056427,N,110.021155507760637,W,,266.6,010113,0,E*68
$GPRMC,100308,A,3801.0495611334060584,N,110.022338646561915,W,,265.09999999999997,010113,0,E*56
$GPRMC,100309,A,3801.0446312574055128,N,110.023456972762613,W,,266.6,010113,0,E*65
$GPRMC,100310,A,3801.0402625152059386,N,110.025193195762903,W,,266.1,010113,0,E*64
$GPRMC,100311,A,3801.0348514524055474,N,110.025804392962513,W,,266.9,010113,0,E*67
$GPRMC,100312,A,3801.0299170482051068,N,110.026923199763399,W,,265.7,010113,0,E*67
$GPRMC,100313,A,3801.0299170482051068,N,110.026923199763399,W,,265.2,010113,0,E*63
$GPRMC,100314,A,3801.0248950134047163,N,110.028139063164186,W,,266.8,010113,0,E*6A
$GPRMC,100315,A,3801.0197585916041874,N,110.029357023565332,W,,265.9,010113,0,E*6A
$GPRMC,100316,A,3801.0146177502038256,N,110.030834324365117,W,,265.4,010113,0,E*6D
$GPRMC,100317,A,3801.0092262810037766,N,110.032279372166869,W,,265.4,010113,0,E*67
$GPRMC,100318,A,3801.0037801554044279,N,110.033833686567322,W,,266.2,010113,0,E*65
$GPRMC,100319,A,3800.9979272772039849,N,110.035118434167973,W,,265.5,010113,0,E*67
$GPRMC,100320,A,3800.9920019322034079,N,110.036570473768304,W,,265.09999999999997,010113,0,E*52
$GPRMC,100321,A,3800.9859462540045172,N,110.038130878169142,W,,266.0,010113,0,E*60
$GPRMC,100322,A,3800.9859462540045172,N,110.038130878169142,W,,265.9,010113,0,E*69
$GPRMC,100323,A,3800.97984133260411,N,110.03967939536961,W,,265.0,010113,0,E*53
$GPRMC,100324,A,3800.9740809798026362,N,110.041658261970392,W,,265.8,010113,0,E*63
$GPRMC,100325,A,3800.967778990203243,N,110.043175420172673,W,,265.8,010113,0,E*51
$GPRMC,100326,A,3800.9615816640024377,N,110.044832806172423,W,,265.3,010113,0,E*6C
$GPRMC,100327,A,3800.9546136222014923,N,110.045599231773167,W,,265.3,010113,0,E*6A
$GPRMC,100328,A,3800.9483951808019242,N,110.04707775717456,W,,264.6,010113,0,E*53
$GPRMC,100329,A,3800.9424590364007202,N,110.048562688775306,W,,266.5,010113,0,E*69
$GPRMC,100330,A,3800.9376186474014503,N,110.04975884877593,W,,265.6,010113,0,E*57
$GPRMC,100331,A,3800.9376186474014503,N,110.04975884877593,W,,265.09999999999997,010113,0,E*67
$GPRMC,100332,A,3800.9343318126022382,N,110.050683881376088,W,,266.4,010113,0,E*68
$GPRMC,100333,A,3800.9315814876015338,N,110.051280897576218,W,,265.9,010113,0,E*66
$GPRMC,100334,A,3800.9291300178010431,N,110.051881284576334,W,,266.1,010113,0,E*69
$GPRMC,100335,A,3800.926825945201557,N,110.05245783777669,W,,267.1,010113,0,E*61
$GPRMC,100336,A,3800.9239834998005847,N,110.053043608176676,W,,266.0,010113,0,E*68
$GPRMC,100337,A,3800.9205839964013762,N,110.05333924917721,W,,265.8,010113,0,E*56
$GPRMC,100338,A,3800.9178121746016643,N,110.054702224176992,W,,265.6,010113,0,E*67
$GPRMC,100339,A,3800.9141754869999374,N,110.055583446578789,W,,265.6,010113,0,E*63
$GPRMC,100340,A,3800.9141754869999374,N,110.055583446578789,W,,265.3,010113,0,E*68
$GPRMC,100341,A,3800.9100958908007328,N,110.056783028378188,W,,266.5,010113,0,E*66
$GPRMC,100342,A,3800.9052753744008157,N,110.057799275378635,W,,266.8,010113,0,E*69
$GPRMC,100343,A,3800.9010367344009751,N,110.06026198138012,W,,265.5,010113,0,E*54
$GPRMC,100344,A,3800.8943060021998406,N,110.060450183980624,W,,266.2,010113,0,E*6A
$GPRMC,100345,A,3800.8883061353995458,N,110.061933555580804,W,,266.6,010113,0,E*65
$GPRMC,100346,A,3800.8819572131992004,N,110.063554702182124,W,,265.09999999999997,010113,0,E*5E
$GPRMC,100347,A,3800.8753972829993018,N,110.06515938718211,W,,265.09999999999997,010113,0,E*6F
$GPRMC,100348,A,3800.8691940071982174,N,110.067420268784858,W,,266.3,010113,0,E*6B
$GPRMC,100349,A,3800.8624296095989337,N,110.069343011385005,W,,261.1,010113,0,E*60
$GPRMC,100350,A,3800.8624296095989337,N,110.069343011385005,W,,265.7,010113,0,E*6A
$GPRMC,100351,A,3800.8550739755983727,N,110.070784702786453,W,,266.3,010113,0,E*6A
$GPRMC,100352,A,3800.8477458713979047,N,110.072469069587143,W,,266.6,010113,0,E*65
$GPRMC,100353,A,3800.8406206589982901,N,110.074139063386763,W,,265.3,010113,0,E*68
$GPRMC,100354,A,3800.833641504597864,N,110.076048643187807,W,,267.4,010113,0,E*5F
$GPRMC,100355,A,3800.8263919085980831,N,110.077733078389848,W,,266.5,010113,0,E*6E
$GPRMC,100356,A,3800.8190096699965466,N,110.079473067590076,W,,265.9,010113,0,E*61
$GPRMC,100357,A,3800.8110746597971286,N,110.080633402190227,W,,265.5,010113,0,E*6B
$GPRMC,100358,A,3800.8110746597971286,N,110.080633402190227,W,,264.6,010113,0,E*66
$GPRMC,100359,A,3800.8042177085970081,N,110.083722479992128,W,,262.9,010113,0,E*66
$GPRMC,100400,A,3800.7968949185963936,N,110.086396608594242,W,,260.59999999999997,010113,0,E*56
$GPRMC,100401,A,3800.7898437125956548,N,110.090012807395805,W,,256.09999999999997,010113,0,E*53
$GPRMC,100402,A,3800.7833414513957848,N,110.094869711997468,W,,253.7,010113,0,E*6F
$GPRMC,100403,A,3800.777116220995282,N,110.100355061401022,W,,250.2,010113,0,E*52
$GPRMC,100404,A,3800.7709135355955254,N,110.106200973603219,W,,246.6,010113,0,E*6A
$GPRMC,100405,A,3800.7665305073959416,N,110.11389360600683,W,,242.6,010113,0,E*55
$GPRMC,100406,A,3800.7665305073959416,N,110.11389360600683,W,,237.39999999999998,010113,0,E*69
$GPRMC,100407,A,3800.7629454833956117,N,110.122165666810542,W,,230.5,010113,0,E*6E
$GPRMC,100408,A,3800.7603548897952805,N,110.130967858215495,W,,225.3,010113,0,E*69
$GPRMC,100409,A,3800.7594688889963663,N,110.140681416019572,W,,219.6,010113,0,E*63
$GPRMC,100410,A,3800.758721013595931,N,110.148719503223202,W,,211.6,010113,0,E*54
$GPRMC,100411,A,3800.7584874755963256,N,110.15437413182572,W,,209.6,010113,0,E*53
$GPRMC,100412,A,3800.7589568381956724,N,110.158668952228105,W,,206.1,010113,0,E*61
$GPRMC,100413,A,3800.759309386195639,N,110.162009631630866,W,,198.6,010113,0,E*54
$GPRMC,100414,A,3800.759309386195639,N,110.162009631630866,W,,193.6,010113,0,E*58
$GPRMC,100415,A,3800.7597187775959924,N,110.165069015432255,W,,187.1,010113,0,E*60
$GPRMC,100416,A,3800.7602596331948064,N,110.168164195833317,W,,181.5,010113,0,E*61
$GPRMC,100417,A,3800.7608343755967439,N,110.171357916634909,W,,181.8,010113,0,E*6B
$GPRMC,100418,A,3800.7615789287957853,N,110.17480103763682,W,,177.9,010113,0,E*54
$GPRMC,100419,A,3800.7625191503957751,N,110.178847693838895,W,,172.8,010113,0,E*63
$GPRMC,100420,A,3800.7636198083967827,N,110.183445646240248,W,,179.4,010113,0,E*68
$GPRMC,100421,A,3800.7646127087967614,N,110.18863430224318,W,,182.8,010113,0,E*56
$GPRMC,100422,A,3800.7654974267963155,N,110.194263066045849,W,,190.9,010113,0,E*62
$GPRMC,100423,A,3800.7659632973964392,N,110.200465335647678,W,,200.4,010113,0,E*67
$GPRMC,100424,A,3800.7659632973964392,N,110.200465335647678,W,,202.6,010113,0,E*60
$GPRMC,100425,A,3800.7662714819970518,N,110.206879957251672,W,,204.6,010113,0,E*66
$GPRMC,100426,A,3800.7661210973971322,N,110.213544914453694,W,,213.6,010113,0,E*6E
$GPRMC,100427,A,3800.7657505001972709,N,110.220454464657553,W,,217.0,010113,0,E*6D
$GPRMC,100428,A,3800.7648621353966689,N,110.227551755461185,W,,224.7,010113,0,E*6C
$GPRMC,100429,A,3800.7636481001972584,N,110.234952504665573,W,,225.9,010113,0,E*6C
$GPRMC,100430,A,3800.7622292471967285,N,110.242507476069198,W,,226.6,010113,0,E*6A
$GPRMC,100431,A,3800.760533494796789,N,110.249793488472072,W,,225.6,010113,0,E*58
$GPRMC,100432,A,3800.7594196949970922,N,110.257817022076123,W,,223.4,010113,0,E*63
$GPRMC,100433,A,3800.7594196949970922,N,110.257817022076123,W,,223.5,010113,0,E*63
$GPRMC,100434,A,3800.7584470607969251,N,110.265214482079305,W,,220.3,010113,0,E*60
$GPRMC,100435,A,3800.757984589798042,N,110.27263597388329,W,,210.9,010113,0,E*62
$GPRMC,100436,A,3800.7573088499977132,N,110.278720311086218,W,,209.8,010113,0,E*6B
$GPRMC,100437,A,3800.7572824559973412,N,110.284073436088237,W,,205.5,010113,0,E*69
$GPRMC,100438,A,3800.7573395615978029,N,110.288552272890392,W,,206.8,010113,0,E*67
$GPRMC,100439,A,3800.7572886101976906,N,110.292144906091952,W,,201.2,010113,0,E*64
$GPRMC,100440,A,3800.7576998075970209,N,110.29624495089378,W,,202.4,010113,0,E*5A
$GPRMC,100441,A,3800.7576998075970209,N,110.29624495089378,W,,200.1,010113,0,E*5C
$GPRMC,100442,A,3800.7580747427979873,N,110.300190532296645,W,,193.6,010113,0,E*62
$GPRMC,100443,A,3800.7585738023982458,N,110.304139053097101,W,,188.3,010113,0,E*61
$GPRMC,100444,A,3800.758969661998492,N,110.307985460499353,W,,186.4,010113,0,E*5A
$GPRMC,100445,A,3800.759868003598001,N,110.312427760302203,W,,183.1,010113,0,E*59
$GPRMC,100446,A,3800.7608939897983191,N,110.317250771503566,W,,176.6,010113,0,E*6B
$GPRMC,100447,A,3800.7621514079977487,N,110.322327232906861,W,,170.5,010113,0,E*60
$GPRMC,100448,A,3800.763865049998742,N,110.32823520190837,W,,163.4,010113,0,E*62
$GPRMC,100449,A,3800.7657918053990898,N,110.334318219711896,W,,162.7,010113,0,E*6F
$GPRMC,100450,A,3800.768311861798594,N,110.340914340714736,W,,156.7,010113,0,E*5F
$GPRMC,100451,A,3800.7711949373995708,N,110.34773824511885,W,,152.2,010113,0,E*5B
$GPRMC,100452,A,3800.7744979409994812,N,110.354702038921921,W,,146.7,010113,0,E*62
$GPRMC,100453,A,3800.7780352349989528,N,110.361372316325102,W,,142.1,010113,0,E*6C
$GPRMC,100454,A,3800.7780352349989528,N,110.361372316325102,W,,134.6,010113,0,E*6D
$GPRMC,100455,A,3800.7813547073997995,N,110.367134560927997,W,,132.6,010113,0,E*6F
$GPRMC,100456,A,3800.7837259007999364,N,110.370903420729348,W,,130.4,010113,0,E*6C
$GPRMC,100457,A,3800.7855766613994319,N,110.373686037730408,W,,127.2,010113,0,E*6C
$GPRMC,100458,A,3800.7871902311998724,N,110.375949729131149,W,,124.1,010113,0,E*6D
$GPRMC,100459,A,3800.7888551898003016,N,110.378167464131778,W,,123.00000000000001,010113,0,E*57
$GPRMC,100500,A,3800.7909521508004502,N,110.380701900133538,W,,119.8,010113,0,E*6C
$GPRMC,100501,A,3800.7931080317999317,N,110.382996794534836,W,,116.9,010113,0,E*60
$GPRMC,100502,A,3800.7954016908000483,N,110.385402447135492,W,,114.9,010113,0,E*67
$GPRMC,100503,A,3800.798216528399962,N,110.388113844137678,W,,112.30000000000001,010113,0,E*6C
$GPRMC,100504,A,3800.8015851588007195,N,110.391058753938122,W,,111.30000000000001,010113,0,E*55
$GPRMC,100505,A,3800.8054114956011915,N,110.394220123939357,W,,110.1,010113,0,E*6B
$GPRMC,100506,A,3800.8096662348019379,N,110.397639922941844,W,,107.19999999999999,010113,0,E*52
$GPRMC,100507,A,3800.8096662348019379,N,110.397639922941844,W,,105.10000000000001,010113,0,E*59
$GPRMC,100508,A,3800.8144290174016078,N,110.400962967742586,W,,100.30000000000001,010113,0,E*51
$GPRMC,100509,A,3800.8193864430012354,N,110.403570570144844,W,,98.10000000000004,010113,0,E*65
$GPRMC,100510,A,3800.824715580002362,N,110.405885095944903,W,,97.60000000000002,010113,0,E*5C
$GPRMC,100511,A,3800.8312243890021875,N,110.409280575146656,W,,95.69999999999999,010113,0,E*69
$GPRMC,100512,A,3800.837363851202042,N,110.411755699348944,W,,95.60000000000002,010113,0,E*51
$GPRMC,100513,A,3800.8435691478028673,N,110.41417009095003,W,,93.5,010113,0,E*62
$GPRMC,100514,A,3800.849814110403031,N,110.416483297350592,W,,92.0,010113,0,E*62
$GPRMC,100515,A,3800.849814110403031,N,110.416483297350592,W,,93.0,010113,0,E*62
$GPRMC,100516,A,3800.8562432400029252,N,110.419040898151763,W,,93.19999999999999,010113,0,E*6C
$GPRMC,100517,A,3800.8617850254036341,N,110.420703592952684,W,,93.69999999999999,010113,0,E*67
$GPRMC,100518,A,3800.8670920344042088,N,110.422669832553503,W,,94.69999999999999,010113,0,E*64
$GPRMC,100519,A,3800.8710864918047889,N,110.424213582754426,W,,90.39999999999998,010113,0,E*66
$GPRMC,100520,A,3800.87394746880463,N,110.42520709875375,W,,92.19999999999999,010113,0,E*59
$GPRMC,100521,A,3800.8769799942042766,N,110.426824104755887,W,,91.39999999999998,010113,0,E*6B
$GPRMC,100522,A,3800.8782929382041971,N,110.426750315554978,W,,90.39999999999998,010113,0,E*68
$GPRMC,100523,A,3800.8782929382041971,N,110.426750315554978,W,,92.39999999999998,010113,0,E*6B
$GPRMC,100524,A,3800.879798424005287,N,110.426643252154445,W,,92.39999999999998,010113,0,E*54
$GPRMC,100525,A,3800.8832815122048032,N,110.428231899155541,W,,92.19999999999999,010113,0,E*6B
$GPRMC,100526,A,3800.8864991772047404,N,110.429119597356781,W,,91.60000000000002,010113,0,E*60
$GPRMC,100527,A,3800.8897794018044181,N,110.429889358357016,W,,92.30000000000001,010113,0,E*6E
$GPRMC,100528,A,3800.8923868020052339,N,110.430286519356503,W,,88.80000000000001,010113,0,E*60
$GPRMC,100529,A,3800.89526133000561,N,110.431634940756842,W,,89.89999999999998,010113,0,E*60
$GPRMC,100530,A,3800.8969525026057568,N,110.432166135756722,W,,89.30000000000001,010113,0,E*68
$GPRMC,100531,A,3800.8969525026057568,N,110.432166135756722,W,,89.19999999999999,010113,0,E*63
$GPRMC,100532,A,3800.8984246050052036,N,110.432730830557508,W,,87.80000000000001,010113,0,E*64
$GPRMC,100533,A,3800.9002354248052313,N,110.432716706557844,W,,86.39999999999998,010113,0,E*66
$GPRMC,100534,A,3800.9032898178053017,N,110.433751731758392,W,,86.80000000000001,010113,0,E*66
$GPRMC,100535,A,3800.9056045494061493,N,110.433374585557456,W,,87.60000000000002,010113,0,E*63
$GPRMC,100536,A,3800.9088526692055154,N,110.43356803455878,W,,86.69999999999999,010113,0,E*57
$GPRMC,100537,A,3800.9124844104061935,N,110.433593466158765,W,,84.69999999999999,010113,0,E*62
$GPRMC,100538,A,3800.9166129648069443,N,110.433644775157497,W,,85.30000000000001,010113,0,E*67
$GPRMC,100539,A,3800.9210879742063582,N,110.433389592757113,W,,85.30000000000001,010113,0,E*65
$GPRMC,100540,A,3800.9259600522062783,N,110.433013357958437,W,,83.80000000000001,010113,0,E*60
$GPRMC,100541,A,3800.9259600522062783,N,110.433013357958437,W,,80.10000000000004,010113,0,E*6E
$GPRMC,100542,A,3800.9310187392068769,N,110.430913495955863,W,,78.69999999999999,010113,0,E*64
$GPRMC,100543,A,3800.9366871342069771,N,110.43101650155647,W,,77.10000000000002,010113,0,E*52
$GPRMC,100544,A,3800.9425554528073121,N,110.429454928955284,W,,75.30000000000001,010113,0,E*60
$GPRMC,100545,A,3800.9486188956077513,N,110.427218123554262,W,,74.80000000000001,010113,0,E*65
$GPRMC,100546,A,3800.9547249582072936,N,110.424865035754012,W,,72.89999999999998,010113,0,E*62
$GPRMC,100547,A,3800.9606597166076369,N,110.421029229752357,W,,70.89999999999998,010113,0,E*67
$GPRMC,100548,A,3800.9667668394091322,N,110.417719785750833,W,,69.69999999999999,010113,0,E*6B
$GPRMC,100549,A,3800.9667668394091322,N,110.417719785750833,W,,66.0,010113,0,E*5A
$GPRMC,100550,A,3800.9728340634080723,N,110.41360082954764,W,,63.19999999999999,010113,0,E*5A
$GPRMC,100551,A,3800.978801935808491,N,110.408863788746835,W,,61.50000000000001,010113,0,E*5F
$GPRMC,100552,A,3800.9844845910086519,N,110.403885312142949,W,,57.19999999999999,010113,0,E*66
$GPRMC,100553,A,3800.9897358324087691,N,110.398728225741403,W,,55.19999999999999,010113,0,E*6D
$GPRMC,100554,A,3800.9948271558083377,N,110.3937096337381,W,,57.19999999999999,010113,0,E*66
$GPRMC,100555,A,3800.9991871842093758,N,110.38951910053607,W,,58.39999999999998,010113,0,E*5E
$GPRMC,100556,A,3801.0019787154088533,N,110.386072221134327,W,,59.89999999999998,010113,0,E*6B
$GPRMC,100557,A,3801.0045065412090537,N,110.383733027534042,W,,58.600000000000016,010113,0,E*55
$GPRMC,100558,A,3801.0045065412090537,N,110.383733027534042,W,,56.0,010113,0,E*55
$GPRMC,100559,A,3801.0063921804096765,N,110.38109532853321,W,,59.60000000000002,010113,0,E*5D
$GPRMC,100600,A,3801.0086450904086064,N,110.379649531332781,W,,57.89999999999997,010113,0,E*65
$GPRMC,100601,A,3801.0108990342097002,N,110.377899477131587,W,,54.30000000000001,010113,0,E*6F
$GPRMC,100602,A,3801.012948528009332,N,110.375634484929485,W,,54.89999999999998,010113,0,E*59
$GPRMC,100603,A,3801.0153559242095866,N,110.372778197529126,W,,54.5,010113,0,E*58
$GPRMC,100604,A,3801.0180279876099974,N,110.369815357328145,W,,53.89999999999998,010113,0,E*67
$GPRMC,100605,A,3801.0206580804084808,N,110.366585181726133,W,,54.19999999999999,010113,0,E*6F
$GPRMC,100606,A,3801.0206580804084808,N,110.366585181726133,W,,63.0,010113,0,E*50
$GPRMC,100607,A,3801.0237931512094178,N,110.36402085912535,W,,74.5,010113,0,E*65
$GPRMC,100608,A,3801.0270230790098367,N,110.362509461523759,W,,78.19999999999999,010113,0,E*6A
$GPRMC,100609,A,3801.0304346184094015,N,110.361971784723396,W,,76.5,010113,0,E*5E
$GPRMC,100610,A,3801.0344694366096974,N,110.362060570324347,W,,75.5,010113,0,E*55
$GPRMC,100611,A,3801.0363097644098218,N,110.359381758722792,W,,68.60000000000002,010113,0,E*61
$GPRMC,100612,A,3801.0392507388101535,N,110.357610027721522,W,,66.0,010113,0,E*50
$GPRMC,100613,A,3801.0420823428101755,N,110.355779248320122,W,,66.19999999999999,010113,0,E*63
$GPRMC,100614,A,3801.0420823428101755,N,110.355779248320122,W,,67.30000000000001,010113,0,E*6F
$GPRMC,100615,A,3801.0447618918097135,N,110.353972635119524,W,,67.39999999999998,010113,0,E*67
$GPRMC,100616,A,3801.048126732010104,N,110.352452122319363,W,,68.80000000000001,010113,0,E*5B
$GPRMC,100617,A,3801.051963610210862,N,110.350863740518342,W,,67.89999999999998,010113,0,E*5D
$GPRMC,100618,A,3801.0557719140096822,N,110.348419885316815,W,,69.60000000000002,010113,0,E*6D
$GPRMC,100619,A,3801.0602302770111294,N,110.345978676715909,W,,69.69999999999999,010113,0,E*68
$GPRMC,100620,A,3801.0649639698110036,N,110.343299188313843,W,,70.80000000000001,010113,0,E*6B
$GPRMC,100621,A,3801.0703472292104266,N,110.340879608513873,W,,72.0,010113,0,E*52
$GPRMC,100622,A,3801.0759035640109005,N,110.33843661791266,W,,73.5,010113,0,E*6B
$GPRMC,100623,A,3801.0815662860120767,N,110.335762786311262,W,,74.69999999999999,010113,0,E*69
$GPRMC,100624,A,3801.0875155866119712,N,110.33309620210936,W,,74.80000000000001,010113,0,E*58
$GPRMC,100625,A,3801.0942150570133435,N,110.33149877770947,W,,74.19999999999999,010113,0,E*53
$GPRMC,100626,A,3801.100419733812572,N,110.329341208307238,W,,74.60000000000002,010113,0,E*50
$GPRMC,100627,A,3801.1064646414129697,N,110.327157852705962,W,,74.19999999999999,010113,0,E*64
$GPRMC,100628,A,3801.1123219260129247,N,110.324789612506336,W,,72.5,010113,0,E*56
$GPRMC,100629,A,3801.1177705278134908,N,110.321994085304048,W,,73.30000000000001,010113,0,E*6C
$GPRMC,100630,A,3801.1177705278134908,N,110.321994085304048,W,,69.39999999999998,010113,0,E*66
$GPRMC,100631,A,3801.1233704028130376,N,110.319409774903079,W,,69.2,010113,0,E*58
$GPRMC,100632,A,3801.1280202516138615,N,110.315943683501079,W,,72.10000000000002,010113,0,E*63
$GPRMC,100633,A,3801.1336847190139565,N,110.314103933500416,W,,75.60000000000004,010113,0,E*69
$GPRMC,100634,A,3801.1392180648138606,N,110.312388507099941,W,,78.30000000000001,010113,0,E*6C
$GPRMC,100635,A,3801.1445999838126397,N,110.310675973898547,W,,79.19999999999999,010113,0,E*69
$GPRMC,100636,A,3801.1495960518139725,N,110.309337741097867,W,,80.80000000000001,010113,0,E*66
$GPRMC,100637,A,3801.154425441013558,N,110.308852330298244,W,,81.89999999999998,010113,0,E*5B
$GPRMC,100638,A,3801.154425441013558,N,110.308852330298244,W,,84.69999999999999,010113,0,E*5E
$GPRMC,100639,A,3801.1579826814144667,N,110.308563369097463,W,,83.80000000000001,010113,0,E*66
$GPRMC,100640,A,3801.1607453658146483,N,110.308574950896862,W,,82.80000000000001,010113,0,E*63
$GPRMC,100641,A,3801.1630408512151291,N,110.30846857449788,W,,82.19999999999999,010113,0,E*50
$GPRMC,100642,A,3801.1651536468154688,N,110.308240839697795,W,,80.39999999999998,010113,0,E*6D
$GPRMC,100643,A,3801.1673680320146218,N,110.307675315096807,W,,78.5,010113,0,E*55
$GPRMC,100644,A,3801.1699001886148608,N,110.306791927896978,W,,79.10000000000002,010113,0,E*62
$GPRMC,100645,A,3801.1730612874156066,N,110.306398393296643,W,,76.0,010113,0,E*50
$GPRMC,100646,A,3801.1730612874156066,N,110.306398393296643,W,,76.60000000000002,010113,0,E*67
$GPRMC,100647,A,3801.1756116858147436,N,110.304912790296147,W,,76.5,010113,0,E*55
$GPRMC,100648,A,3801.179313004215743,N,110.304667012895248,W,,75.69999999999999,010113,0,E*5F
$GPRMC,100649,A,3801.1831558932153996,N,110.303565084694855,W,,76.80000000000001,010113,0,E*6D
$GPRMC,100650,A,3801.1874416188146597,N,110.302005573095009,W,,76.80000000000001,010113,0,E*66
$GPRMC,100651,A,3801.1921103172157643,N,110.300212639292624,W,,78.10000000000002,010113,0,E*6B
$GPRMC,100652,A,3801.1973974326153325,N,110.298506599892034,W,,77.80000000000001,010113,0,E*66
$GPRMC,100653,A,3801.2035221930159423,N,110.297658440491642,W,,76.89999999999998,010113,0,E*60
$GPRMC,100654,A,3801.2093623080166083,N,110.295809318490896,W,,75.10000000000002,010113,0,E*69
$GPRMC,100655,A,3801.2093623080166083,N,110.295809318490896,W,,75.5,010113,0,E*5E
$GPRMC,100656,A,3801.2151133716176332,N,110.293363888889173,W,,73.89999999999998,010113,0,E*62
$GPRMC,100657,A,3801.2212858758162781,N,110.291350277488727,W,,73.39999999999998,010113,0,E*69
$GPRMC,100658,A,3801.227163984015931,N,110.288632078887282,W,,71.10000000000004,010113,0,E*59
$GPRMC,100659,A,3801.2330564064170346,N,110.28560394548692,W,,69.80000000000001,010113,0,E*52
$GPRMC,100700,A,3801.2384961294169727,N,110.281988608284415,W,,69.69999999999999,010113,0,E*68
$GPRMC,100701,A,3801.2441448576174707,N,110.278889028083364,W,,65.10000000000002,010113,0,E*62
$GPRMC,100702,A,3801.2490335088173765,N,110.27522261408123,W,,66.10000000000002,010113,0,E*59
$GPRMC,100703,A,3801.2530255908180266,N,110.271887331679688,W,,63.899999999999984,010113,0,E*58
$GPRMC,100704,A,3801.2562498576171777,N,110.269079341879074,W,,62.699999999999996,010113,0,E*51
$GPRMC,100705,A,3801.2590341984181919,N,110.266624050077828,W,,62.30000000000002,010113,0,E*6B
$GPRMC,100706,A,3801.2621674710189268,N,110.265249433875962,W,,59.199999999999996,010113,0,E*5B
$GPRMC,100707,A,3801.2621674710189268,N,110.265249433875962,W,,59.89999999999998,010113,0,E*64
$GPRMC,100708,A,3801.2635660050183617,N,110.262299868074201,W,,59.30000000000001,010113,0,E*63
$GPRMC,100709,A,3801.2657760030180043,N,110.259955693873447,W,,54.10000000000002,010113,0,E*6B
$GPRMC,100710,A,3801.2680036596188415,N,110.257657656072542,W,,59.89999999999998,010113,0,E*62
$GPRMC,100711,A,3801.270154167618358,N,110.255427171672391,W,,55.10000000000003,010113,0,E*50
$GPRMC,100712,A,3801.2722296432190205,N,110.252881993870808,W,,55.5,010113,0,E*56
$GPRMC,100713,A,3801.2746194132188293,N,110.249977312268644,W,,54.30000000000001,010113,0,E*65
$GPRMC,100714,A,3801.2746194132188293,N,110.249977312268644,W,,52.0,010113,0,E*56
$GPRMC,100715,A,3801.2767680762178202,N,110.24660095026742,W,,49.5,010113,0,E*6E
$GPRMC,100716,A,3801.278829415818592,N,110.243241892266388,W,,48.60000000000002,010113,0,E*54
$GPRMC,100717,A,3801.2809796298179776,N,110.240491978265345,W,,47.5,010113,0,E*54
$GPRMC,100718,A,3801.2828530620194556,N,110.237623167063191,W,,42.69999999999999,010113,0,E*6F
$GPRMC,100719,A,3801.2835966222191075,N,110.233765812660472,W,,43.19999999999999,010113,0,E*6D
$GPRMC,100720,A,3801.285578437817776,N,110.231828464259753,W,,39.60000000000002,010113,0,E*50
$GPRMC,100721,A,3801.2871315504186498,N,110.228884583459315,W,,40.69999999999999,010113,0,E*6F
$GPRMC,100722,A,3801.2871315504186498,N,110.228884583459315,W,,38.80000000000001,010113,0,E*65
$GPRMC,100723,A,3801.2887124910186287,N,110.225844460857708,W,,38.60000000000002,010113,0,E*66
$GPRMC,100724,A,3801.290066313018201,N,110.222469511856627,W,,39.19999999999999,010113,0,E*5A
$GPRMC,100725,A,3801.2918227050190012,N,110.218761111654509,W,,33.30000000000002,010113,0,E*66
$GPRMC,100726,A,3801.2937845244196922,N,110.214208149051963,W,,31.100000000000026,010113,0,E*53
$GPRMC,100727,A,3801.2957036766189844,N,110.20868046844865,W,,27.5,010113,0,E*69
$GPRMC,100728,A,3801.29776931881878,N,110.202389678446039,W,,29.100000000000023,010113,0,E*5C
$GPRMC,100729,A,3801.2997144072184597,N,110.195183686242446,W,,28.30000000000001,010113,0,E*63
$GPRMC,100730,A,3801.2997144072184597,N,110.195183686242446,W,,23.899999999999977,010113,0,E*5A
$GPRMC,100731,A,3801.302057038819271,N,110.187832543839459,W,,18.5,010113,0,E*67
$GPRMC,100732,A,3801.3038208324185518,N,110.180038481435849,W,,12.300000000000011,010113,0,E*54
$GPRMC,100733,A,3801.3052035420184893,N,110.172486230431478,W,,2.6999999999999886,010113,0,E*51
$GPRMC,100734,A,3801.3059346936185534,N,110.164960540229062,W,,359.5,010113,0,E*6B
$GPRMC,100735,A,3801.3062988240181994,N,110.157734011825461,W,,354.1,010113,0,E*64
$GPRMC,100736,A,3801.306388300817929,N,110.150813698821178,W,,351.8,010113,0,E*55
$GPRMC,100737,A,3801.3064326012182903,N,110.145266582418921,W,,351.3,010113,0,E*64
$GPRMC,100738,A,3801.306302283618379,N,110.140929719417201,W,,349.3,010113,0,E*5A
$GPRMC,100739,A,3801.306302283618379,N,110.140929719417201,W,,352.2,010113,0,E*50
$GPRMC,100740,A,3801.3062748588184547,N,110.13789190321508,W,,349.3,010113,0,E*50
$GPRMC,100741,A,3801.306390279018359,N,110.135920747815202,W,,348.0,010113,0,E*51
$GPRMC,100742,A,3801.3065869212178427,N,110.13488761561316,W,,348.6,010113,0,E*5C
$GPRMC,100743,A,3801.3065591034181523,N,110.13393231361276,W,,349.8,010113,0,E*51
$GPRMC,100744,A,3801.3063855330189256,N,110.13302632801282,W,,344.9,010113,0,E*5A
$GPRMC,100745,A,3801.306350928017821,N,110.13250760101208,W,,346.5,010113,0,E*6C
$GPRMC,100746,A,3801.3061371378184106,N,110.13220366381178,W,,349.1,010113,0,E*55
$GPRMC,100747,A,3801.3061371378184106,N,110.13220366381178,W,,348.7,010113,0,E*53
$GPRMC,100748,A,3801.3060700374182943,N,110.13212784961182,W,,352.2,010113,0,E*5A
$GPRMC,100749,A,3801.3061157670186674,N,110.132107506012161,W,,348.1,010113,0,E*65
$GPRMC,100750,A,3801.3062649018176842,N,110.132150653212776,W,,348.5,010113,0,E*6D
$GPRMC,100751,A,3801.3062856684180701,N,110.13210051901237,W,,350.3,010113,0,E*59
$GPRMC,100752,A,3801.306450908418526,N,110.13187380481201,W,,346.7,010113,0,E*6B
$GPRMC,100753,A,3801.3063516942179376,N,110.13072884941144,W,,346.4,010113,0,E*51
$GPRMC,100754,A,3801.3061578252177242,N,110.128710888010954,W,,342.6,010113,0,E*6A
$GPRMC,100755,A,3801.305960514618505,N,110.126100445208873,W,,340.0,010113,0,E*5C
$GPRMC,100756,A,3801.305960514618505,N,110.126100445208873,W,,337.7,010113,0,E*58
$GPRMC,100757,A,3801.3055484118177674,N,110.122809490807295,W,,335.7,010113,0,E*61
$GPRMC,100758,A,3801.3050424216176282,N,110.11905749040638,W,,332.3,010113,0,E*50
$GPRMC,100759,A,3801.3043213476169058,N,110.115219014404012,W,,337.7,010113,0,E*6D
$GPRMC,100800,A,3801.3036131988179989,N,110.111423382602243,W,,332.6,010113,0,E*66
$GPRMC,100801,A,3801.3030298194183842,N,110.107769946000381,W,,346.2,010113,0,E*63
$GPRMC,100802,A,3801.3030859506174863,N,110.104180543799837,W,,8.5,010113,0,E*67
$GPRMC,100803,A,3801.3041729850181127,N,110.10112941059841,W,,33.5,010113,0,E*66
$GPRMC,100804,A,3801.3060395328180618,N,110.098890842997484,W,,54.60000000000002,010113,0,E*60
$GPRMC,100805,A,3801.3060395328180618,N,110.098890842997484,W,,75.0,010113,0,E*56
$GPRMC,100806,A,3801.3088256652176256,N,110.097923940596258,W,,83.5,010113,0,E*51
$GPRMC,100807,A,3801.3121978104175014,N,110.097913070395732,W,,85.10000000000002,010113,0,E*63
$GPRMC,100808,A,3801.3158197014179507,N,110.098097903996997,W,,82.60000000000002,010113,0,E*6F
$GPRMC,100809,A,3801.320142597018048,N,110.098325839195752,W,,86.0,010113,0,E*60
$GPRMC,100810,A,3801.324921819017959,N,110.098303338596274,W,,87.0,010113,0,E*65
$GPRMC,100811,A,3801.3301399950186976,N,110.098473133195615,W,,87.30000000000001,010113,0,E*6E
$GPRMC,100812,A,3801.3358703190189658,N,110.098804588796874,W,,81.69999999999999,010113,0,E*61
$GPRMC,100813,A,3801.3420159378189567,N,110.099267381395972,W,,86.0,010113,0,E*53
$GPRMC,100814,A,3801.3480679302190879,N,110.100271382997214,W,,88.69999999999999,010113,0,E*6B
$GPRMC,100815,A,3801.3545024802195371,N,110.102178620998238,W,,92.30000000000001,010113,0,E*63
$GPRMC,100816,A,3801.3545024802195371,N,110.102178620998238,W,,95.69999999999999,010113,0,E*6A
$GPRMC,100817,A,3801.3598125768200475,N,110.10463702019833,W,,96.39999999999998,010113,0,E*5E
$GPRMC,100818,A,3801.365246317820663,N,110.108294634600457,W,,96.19999999999999,010113,0,E*50
$GPRMC,100819,A,3801.3722000430199444,N,110.10987835500124,W,,97.39999999999999,010113,0,E*54
$GPRMC,100820,A,3801.3771048672207087,N,110.113259896802731,W,,98.30000000000001,010113,0,E*66
$GPRMC,100821,A,3801.3808158330205345,N,110.114968432203488,W,,97.60000000000002,010113,0,E*65
$GPRMC,100822,A,3801.3834672432210482,N,110.116010402403838,W,,96.30000000000001,010113,0,E*6A
$GPRMC,100823,A,3801.3846328206216185,N,110.115953047203806,W,,96.69999999999999,010113,0,E*6F
$GPRMC,100824,A,3801.3846328206216185,N,110.115953047203806,W,,97.10000000000002,010113,0,E*65
$GPRMC,100825,A,3801.3864678678210396,N,110.117235463205665,W,,96.5,010113,0,E*5E
$GPRMC,100826,A,3801.3893224470214705,N,110.11861277700513,W,,95.5,010113,0,E*66
$GPRMC,100827,A,3801.3938932590212971,N,110.121187471806863,W,,97.80000000000001,010113,0,E*61
$GPRMC,100828,A,3801.399369492022231,N,110.124088203007368,W,,97.60000000000002,010113,0,E*59
$GPRMC,100829,A,3801.4051087356216385,N,110.127223301408854,W,,94.60000000000002,010113,0,E*63
$GPRMC,100830,A,3801.4117190208227726,N,110.130658836611005,W,,96.39999999999998,010113,0,E*60
$GPRMC,100831,A,3801.4186572732231184,N,110.134328482812819,W,,96.69999999999999,010113,0,E*6D
$GPRMC,100832,A,3801.4257171630244159,N,110.138033601015133,W,,95.0,010113,0,E*59
$GPRMC,100833,A,3801.4257171630244159,N,110.138033601015133,W,,95.0,010113,0,E*58
$GPRMC,100834,A,3801.4326250026226717,N,110.141597522415822,W,,97.80000000000001,010113,0,E*60
$GPRMC,100835,A,3801.439012259424004,N,110.144804169617219,W,,96.60000000000002,010113,0,E*54
$GPRMC,100836,A,3801.4447926780249531,N,110.147928345018546,W,,93.69999999999999,010113,0,E*61
$GPRMC,100837,A,3801.450563155224387,N,110.149803019820327,W,,95.10000000000002,010113,0,E*55
$GPRMC,100838,A,3801.4549589592242285,N,110.152737928220837,W,,107.19999999999999,010113,0,E*57
$GPRMC,100839,A,3801.4568187042243608,N,110.155307125222715,W,,129.1,010113,0,E*6A
$GPRMC,100840,A,3801.4560184518249741,N,110.15783238182462,W,,184.7,010113,0,E*5A
$GPRMC,100841,A,3801.4560184518249741,N,110.15783238182462,W,,228.6,010113,0,E*5F
$GPRMC,100842,A,3801.4575251094247221,N,110.166986859628576,W,,242.0,010113,0,E*65
$GPRMC,100843,A,3801.4545239742243155,N,110.172479368231668,W,,246.4,010113,0,E*60
$GPRMC,100844,A,3801.451123183824734,N,110.177893236034476,W,,246.2,010113,0,E*55
$GPRMC,100845,A,3801.447050787025006,N,110.183409211236235,W,,244.40000000000003,010113,0,E*6C
$GPRMC,100846,A,3801.443725203024826,N,110.189322872438854,W,,245.29999999999998,010113,0,E*6E
$GPRMC,100847,A,3801.4398871614248776,N,110.194690902041161,W,,245.89999999999998,010113,0,E*5D
$GPRMC,100848,A,3801.4370545842248816,N,110.199984199244758,W,,244.40000000000003,010113,0,E*5A
$GPRMC,100849,A,3801.4370545842248816,N,110.199984199244758,W,,244.09999999999997,010113,0,E*5B
$GPRMC,100850,A,3801.4345759068237385,N,110.20374187984653,W,,246.1,010113,0,E*53
$GPRMC,100851,A,3801.4324203204250807,N,110.206924217448353,W,,246.3,010113,0,E*6E
$GPRMC,100852,A,3801.4303596474249503,N,110.209731277848864,W,,245.4,010113,0,E*67
$GPRMC,100853,A,3801.4282864086244729,N,110.212859712050717,W,,249.9,010113,0,E*66
$GPRMC,100854,A,3801.4260151632242923,N,110.216349484252678,W,,236.5,010113,0,E*67
$GPRMC,100855,A,3801.4228627422239981,N,110.219618967653599,W,,244.2,010113,0,E*6E
$GPRMC,100856,A,3801.4203859152245002,N,110.22398773865524,W,,242.5,010113,0,E*58
$GPRMC,100857,A,3801.418106772623986,N,110.228689722657753,W,,235.09999999999997,010113,0,E*61
$GPRMC,100858,A,3801.4165369422245533,N,110.234003857260397,W,,224.7,010113,0,E*66
$GPRMC,100859,A,3801.4165369422245533,N,110.234003857260397,W,,214.5,010113,0,E*66
$GPRMC,100900,A,3801.4157924766239205,N,110.239866441663388,W,,213.1,010113,0,E*64
$GPRMC,100901,A,3801.4153413630241118,N,110.245581871266833,W,,234.89999999999998,010113,0,E*54
$GPRMC,100902,A,3801.4147345644242648,N,110.251874260868936,W,,257.8,010113,0,E*61
$GPRMC,100903,A,3801.4112753760244345,N,110.254827881470927,W,,276.2,010113,0,E*60
$GPRMC,100904,A,3801.4053891360242687,N,110.251725682869818,W,,293.9,010113,0,E*67
$GPRMC,100905,A,3801.4023385836230773,N,110.247840414067614,W,,306.0,010113,0,E*6E
$GPRMC,100906,A,3801.3992464344239863,N,110.243845872065481,W,,294.8,010113,0,E*6B
$GPRMC,100907,A,3801.3952078656230071,N,110.240489724064492,W,,285.3,010113,0,E*60
$GPRMC,100908,A,3801.3903022890235661,N,110.237828089262852,W,,282.9,010113,0,E*6C
$GPRMC,100909,A,3801.3903022890235661,N,110.237828089262852,W,,280.7,010113,0,E*61
$GPRMC,100910,A,3801.385401035423257,N,110.235846091261038,W,,280.2,010113,0,E*5D
$GPRMC,100911,A,3801.380313229222594,N,110.233548771660432,W,,280.6,010113,0,E*5E
$GPRMC,100912,A,3801.3753794490217786,N,110.231247687658861,W,,280.4,010113,0,E*6D
$GPRMC,100913,A,3801.3705884496216925,N,110.229088724458325,W,,281.7,010113,0,E*6A
$GPRMC,100914,A,3801.3664621284220857,N,110.2280115162575,W,,278.5,010113,0,E*60
$GPRMC,100915,A,3801.3664621284220857,N,110.2280115162575,W,,264.0,010113,0,E*69
$GPRMC,100916,A,3801.3664621284220857,N,110.2280115162575,W,,251.59999999999997,010113,0,E*5E
$GPRMC,100917,A,3801.3664621284220857,N,110.2280115162575,W,,226.5,010113,0,E*68
$GPRMC,100918,A,3801.3664621284220857,N,110.2280115162575,W,,177.4,010113,0,E*61
$GPRMC,100919,A,3801.3664621284220857,N,110.2280115162575,W,,116.5,010113,0,E*66
$GPRMC,100920,A,3801.3664621284220857,N,110.2280115162575,W,,95.10000000000002,010113,0,E*60
$GPRMC,100921,A,3801.3681351978222267,N,110.240808510664397,W,,91.60000000000002,010113,0,E*6C
$GPRMC,100922,A,3801.3716353542216098,N,110.241776136664683,W,,96.89999999999998,010113,0,E*66
$GPRMC,100923,A,3801.3741107208225856,N,110.244244459266021,W,,107.1,010113,0,E*68
$GPRMC,100924,A,3801.3758671296223213,N,110.247156151266367,W,,129.9,010113,0,E*60
$GPRMC,100925,A,3801.3758671296223213,N,110.247156151266367,W,,167.2,010113,0,E*60
$GPRMC,100926,A,3801.3766343136222758,N,110.250401569868867,W,,191.3,010113,0,E*61
$GPRMC,100927,A,3801.3765084396221994,N,110.254556605270984,W,,214.4,010113,0,E*66
$GPRMC,100928,A,3801.3756686292228437,N,110.258573797872552,W,,228.2,010113,0,E*62
$GPRMC,100929,A,3801.3743128326223086,N,110.261878390874886,W,,232.39999999999998,010113,0,E*50
$GPRMC,100930,A,3801.37262796002247,N,110.264221146074547,W,,243.4,010113,0,E*68
$GPRMC,100931,A,3801.37262796002247,N,110.264221146074547,W,,255.2,010113,0,E*68
$GPRMC,100932,A,3801.3703727772222862,N,110.265896028676424,W,,264.4,010113,0,E*61
$GPRMC,100933,A,3801.3674860146224432,N,110.266647709876416,W,,274.7,010113,0,E*6B
$GPRMC,100934,A,3801.3642854688228567,N,110.265981759676404,W,,279.2,010113,0,E*60
$GPRMC,100935,A,3801.3608224188224938,N,110.264035432874849,W,,281.1,010113,0,E*6B
$GPRMC,100936,A,3801.3573672708224649,N,110.264039690474789,W,,282.1,010113,0,E*6D
$GPRMC,100937,A,3801.3534715986220647,N,110.263968083474634,W,,282.3,010113,0,E*66
$GPRMC,100938,A,3801.3505296870224015,N,110.261457886873613,W,,285.0,010113,0,E*6C
$GPRMC,100939,A,3801.3475775772209886,N,110.260282115474064,W,,281.9,010113,0,E*6F
$GPRMC,100940,A,3801.3475775772209886,N,110.260282115474064,W,,273.6,010113,0,E*63
$GPRMC,100941,A,3801.344648779821398,N,110.257724359271974,W,,259.7,010113,0,E*51
$GPRMC,100942,A,3801.3437877576212998,N,110.260871886674048,W,,248.7,010113,0,E*68
$GPRMC,100943,A,3801.3433057944219229,N,110.261711933474329,W,,238.5,010113,0,E*64
$GPRMC,100944,A,3801.343066065021219,N,110.262618001875303,W,,234.5,010113,0,E*58
$GPRMC,100945,A,3801.3429167928217112,N,110.263204812074843,W,,235.09999999999997,010113,0,E*59
$GPRMC,100946,A,3801.3428484630212267,N,110.263374207075815,W,,233.4,010113,0,E*6E
$GPRMC,100947,A,3801.3427470270219999,N,110.263511640675329,W,,233.6,010113,0,E*68
