$GPRMC,100000,A,3801.0776158212077291,N,110.017050175158078,W,,308.8,010113,0,E*6C
$GPRMC,100001,A,3801.0776158212077291,N,110.017050175158078,W,,311.4,010113,0,E*69
$GPRMC,100002,A,3801.0777755484070894,N,110.016958576759464,W,,312.0,010113,0,E*6F
$GPRMC,100003,A,3801.077879754007398,N,110.01696330115863,W,,312.1,010113,0,E*6A
$GPRMC,100004,A,3801.0780344874068248,N,110.01701235895836,W,,312.7,010113,0,E*53
$GPRMC,100005,A,3801.0788734230072805,N,110.016904998558974,W,,309.2,010113,0,E*6E
$GPRMC,100006,A,3801.078805277408037,N,110.016966269358797,W,,308.9,010113,0,E*55
$GPRMC,100007,A,3801.078805277408037,N,110.016966269358797,W,,309.4,010113,0,E*58
$GPRMC,100008,A,3801.0787789302075623,N,110.017002073158201,W,,312.3,010113,0,E*63
$GPRMC,100009,A,3801.0788911536067758,N,110.016952252759088,W,,311.7,010113,0,E*62
$GPRMC,100010,A,3801.0790026960074783,N,110.016999747558714,W,,312.0,010113,0,E*66
$GPRMC,100011,A,3801.0792112926073116,N,110.016933868758393,W,,309.9,010113,0,E*64
$GPRMC,100012,A,3801.079291267807747,N,110.016944221159157,W,,309.9,010113,0,E*50
$GPRMC,100013,A,3801.079291267807747,N,110.016944221159157,W,,308.9,010113,0,E*50
$GPRMC,100014,A,3801.0794195022066333,N,110.017004314758001,W,,310.8,010113,0,E*69
$GPRMC,100015,A,3801.0794994948071235,N,110.017021783157833,W,,311.5,010113,0,E*64
$GPRMC,100016,A,3801.0795085158073903,N,110.017055747958924,W,,311.1,010113,0,E*65
$GPRMC,100017,A,3801.0794574006074242,N,110.017161526758551,W,,311.9,010113,0,E*66
$GPRMC,100018,A,3801.0794574006074242,N,110.017161526758551,W,,309.0,010113,0,E*69
$GPRMC,100019,A,3801.0794896764069506,N,110.017240939759073,W,,310.3,010113,0,E*6C
$GPRMC,100020,A,3801.0793384902069647,N,110.01734373475836,W,,310.2,010113,0,E*51
$GPRMC,100021,A,3801.079507559406352,N,110.017171564759476,W,,312.5,010113,0,E*50
$GPRMC,100022,A,3801.079507559406352,N,110.017171564759476,W,,312.0,010113,0,E*56
$GPRMC,100023,A,3801.0794449764077285,N,110.017118696358791,W,,312.4,010113,0,E*67
$GPRMC,100024,A,3801.079535108407299,N,110.017043578757864,W,,310.0,010113,0,E*58
$GPRMC,100025,A,3801.0795236664081642,N,110.016988809558661,W,,310.2,010113,0,E*6D
$GPRMC,100026,A,3801.0795899298069855,N,110.016961226357912,W,,309.1,010113,0,E*61
$GPRMC,100027,A,3801.0795682368069492,N,110.016930636558605,W,,308.6,010113,0,E*6A
$GPRMC,100028,A,3801.0795682368069492,N,110.016930636558605,W,,308.7,010113,0,E*64
$GPRMC,100029,A,3801.079386704406744,N,110.016920027358074,W,,309.6,010113,0,E*5B
$GPRMC,100030,A,3801.0793382766071602,N,110.016854972959033,W,,309.0,010113,0,E*62
$GPRMC,100031,A,3801.079083241806842,N,110.016718857558455,W,,308.2,010113,0,E*5B
$GPRMC,100032,A,3801.0787583088064423,N,110.016682775958468,W,,309.5,010113,0,E*62
$GPRMC,100033,A,3801.0787583088064423,N,110.016682775958468,W,,307.1,010113,0,E*69
$GPRMC,100034,A,3801.0782804082073483,N,110.016649346958285,W,,304.8,010113,0,E*63
$GPRMC,100035,A,3801.0775030566060195,N,110.016564839957995,W,,304.3,010113,0,E*6B
$GPRMC,100036,A,3801.076079902806839,N,110.016515947158213,W,,303.9,010113,0,E*59
$GPRMC,100037,A,3801.074422250407281,N,110.016444626358854,W,,303.8,010113,0,E*5F
$GPRMC,100038,A,3801.0724473324070516,N,110.016619959559359,W,,305.4,010113,0,E*6F
$GPRMC,100039,A,3801.0702257796063464,N,110.017080426558916,W,,306.7,010113,0,E*63
$GPRMC,100040,A,3801.0702257796063464,N,110.017080426558916,W,,306.7,010113,0,E*6D
$GPRMC,100041,A,3801.0678596172064658,N,110.017698519558698,W,,308.0,010113,0,E*6E
$GPRMC,100042,A,3801.065141749807168,N,110.018458427359995,W,,307.6,010113,0,E*5F
$GPRMC,100043,A,3801.0623954202058883,N,110.019007993760102,W,,308.3,010113,0,E*6D
$GPRMC,100044,A,3801.0594844482069732,N,110.0196237845606,W,,306.0,010113,0,E*6E
$GPRMC,100045,A,3801.0564532002064198,N,110.02016297036105,W,,306.1,010113,0,E*53
$GPRMC,100046,A,3801.0532871052059534,N,110.020921928360004,W,,307.0,010113,0,E*62
$GPRMC,100047,A,3801.050047048805709,N,110.021760850160245,W,,307.3,010113,0,E*5B
$GPRMC,100048,A,3801.050047048805709,N,110.021760850160245,W,,307.8,010113,0,E*5F
$GPRMC,100049,A,3801.0466703388058818,N,110.022625898362275,W,,307.4,010113,0,E*60
$GPRMC,100050,A,3801.0432105762055244,N,110.023482931761642,W,,306.9,010113,0,E*60
$GPRMC,100051,A,3801.039903841805625,N,110.024187108562899,W,,307.2,010113,0,E*56
$GPRMC,100052,A,3801.0362357904053,N,110.02520963216309,W,,306.9,010113,0,E*6D
$GPRMC,100053,A,3801.0362357904053,N,110.02520963216309,W,,307.1,010113,0,E*65
$GPRMC,100054,A,3801.0329214486054639,N,110.025936445162568,W,,306.7,010113,0,E*66
$GPRMC,100055,A,3801.029597900404866,N,110.026746515963447,W,,307.1,010113,0,E*52
$GPRMC,100056,A,3801.0260926794043712,N,110.027524129764359,W,,307.5,010113,0,E*69
$GPRMC,100057,A,3801.0228079314047989,N,110.028357631164976,W,,306.9,010113,0,E*6C
$GPRMC,100058,A,3801.0194019270038268,N,110.029176281965405,W,,306.3,010113,0,E*6B
$GPRMC,100059,A,3801.0194019270038268,N,110.029176281965405,W,,306.6,010113,0,E*6F
$GPRMC,100100,A,3801.0159580062047269,N,110.030066102964849,W,,306.8,010113,0,E*65
$GPRMC,100101,A,3801.0122112018041207,N,110.031062076566108,W,,307.0,010113,0,E*68
$GPRMC,100102,A,3801.0086121858043384,N,110.03199956816642,W,,307.7,010113,0,E*5B
$GPRMC,100103,A,3801.005114388604511,N,110.032898869766434,W,,308.5,010113,0,E*5F
$GPRMC,100104,A,3801.001495764603959,N,110.033713456767778,W,,309.3,010113,0,E*51
$GPRMC,100105,A,3801.001495764603959,N,110.033713456767778,W,,308.8,010113,0,E*5A
$GPRMC,100106,A,3800.997920140803501,N,110.03448865436817,W,,307.3,010113,0,E*65
$GPRMC,100107,A,3800.9939958540037708,N,110.035403876968022,W,,307.8,010113,0,E*6D
$GPRMC,100108,A,3800.9900996382040717,N,110.036225199568353,W,,308.6,010113,0,E*6D
$GPRMC,100109,A,3800.9858787030024985,N,110.037359298569477,W,,307.9,010113,0,E*6A
$GPRMC,100110,A,3800.9816983794037526,N,110.038527959369063,W,,308.5,010113,0,E*6E
$GPRMC,100111,A,3800.9816983794037526,N,110.038527959369063,W,,309.8,010113,0,E*63
$GPRMC,100112,A,3800.9773657308031147,N,110.039793374370634,W,,310.1,010113,0,E*6A
$GPRMC,100113,A,3800.9732515536032338,N,110.040680548170924,W,,309.5,010113,0,E*6D
$GPRMC,100114,A,3800.9689440018031803,N,110.041666727370227,W,,310.0,010113,0,E*66
$GPRMC,100115,A,3800.9701421544023958,N,110.038992992969465,W,,310.0,010113,0,E*69
$GPRMC,100116,A,3800.9656575060027706,N,110.039993942971094,W,,309.4,010113,0,E*69
$GPRMC,100117,A,3800.9656575060027706,N,110.039993942971094,W,,308.4,010113,0,E*69
$GPRMC,100118,A,3800.9611688352023862,N,110.041159457969995,W,,310.4,010113,0,E*6F
$GPRMC,100119,A,3800.9566999236021445,N,110.042356393770909,W,,310.7,010113,0,E*6B
$GPRMC,100120,A,3800.9521785378019842,N,110.043506942971462,W,,309.0,010113,0,E*6E
$GPRMC,100121,A,3800.9476900956020984,N,110.044661836172747,W,,309.9,010113,0,E*69
$GPRMC,100122,A,3800.9434474650019808,N,110.045682773372647,W,,309.5,010113,0,E*69
$GPRMC,100123,A,3800.9434474650019808,N,110.045682773372647,W,,309.6,010113,0,E*6B
$GPRMC,100124,A,3800.9393152770017821,N,110.046626863174023,W,,310.9,010113,0,E*65
$GPRMC,100125,A,3800.9359027728008584,N,110.047463936373525,W,,310.0,010113,0,E*6C
$GPRMC,100126,A,3800.9332217202015158,N,110.048170487373804,W,,311.4,010113,0,E*63
$GPRMC,100127,A,3800.9311501500016561,N,110.048688407374211,W,,310.1,010113,0,E*6E
$GPRMC,100128,A,3800.9294177460013486,N,110.049100418375314,W,,307.7,010113,0,E*6F
$GPRMC,100129,A,3800.9276483070017605,N,110.04951241797475,W,,308.0,010113,0,E*5B
$GPRMC,100130,A,3800.9276483070017605,N,110.04951241797475,W,,309.2,010113,0,E*50
$GPRMC,100131,A,3800.9254602912010057,N,110.049956806774656,W,,309.7,010113,0,E*6D
$GPRMC,100132,A,3800.9233221690007554,N,110.050501316376304,W,,309.2,010113,0,E*62
$GPRMC,100133,A,3800.9214356460014983,N,110.050980598775512,W,,308.7,010113,0,E*69
$GPRMC,100134,A,3800.919749029200716,N,110.051397530976288,W,,309.9,010113,0,E*5E
$GPRMC,100135,A,3800.917427023201185,N,110.05194288777561,W,,306.9,010113,0,E*69
$GPRMC,100136,A,3800.917427023201185,N,110.05194288777561,W,,306.7,010113,0,E*64
$GPRMC,100137,A,3800.9142982626012497,N,110.052803278777468,W,,306.5,010113,0,E*63
$GPRMC,100138,A,3800.9104253538009743,N,110.05374465237642,W,,307.7,010113,0,E*5E
$GPRMC,100139,A,3800.9061308753999242,N,110.054865736177572,W,,306.7,010113,0,E*65
$GPRMC,100140,A,3800.9014891956003623,N,110.0559954779788,W,,308.7,010113,0,E*68
$GPRMC,100141,A,3800.8966605455995591,N,110.05718593137875,W,,307.4,010113,0,E*5D
$GPRMC,100142,A,3800.8915219542001296,N,110.058437098180114,W,,307.6,010113,0,E*68
$GPRMC,100143,A,3800.8862359295986266,N,110.059723807780877,W,,308.0,010113,0,E*63
$GPRMC,100144,A,3800.8808331119988111,N,110.061027925180145,W,,307.5,010113,0,E*61
$GPRMC,100145,A,3800.8808331119988111,N,110.061027925180145,W,,308.0,010113,0,E*6A
$GPRMC,100146,A,3800.875344017998998,N,110.062348085982356,W,,307.9,010113,0,E*58
$GPRMC,100147,A,3800.8698380387991733,N,110.063608274381641,W,,308.5,010113,0,E*6D
$GPRMC,100148,A,3800.8644057833993202,N,110.0648631677823,W,,310.8,010113,0,E*6D
$GPRMC,100149,A,3800.8590898487986465,N,110.066102464784175,W,,308.0,010113,0,E*60
$GPRMC,100150,A,3800.8538207807985998,N,110.06748918478371,W,,309.2,010113,0,E*53
$GPRMC,100151,A,3800.8484888063973983,N,110.068878050384651,W,,307.6,010113,0,E*68
$GPRMC,100152,A,3800.8484888063973983,N,110.068878050384651,W,,306.4,010113,0,E*68
$GPRMC,100153,A,3800.8433488625979635,N,110.070181058985934,W,,307.8,010113,0,E*61
$GPRMC,100154,A,3800.8382436491977785,N,110.071423288785919,W,,308.6,010113,0,E*64
$GPRMC,100155,A,3800.8333118927980365,N,110.072663863787552,W,,308.7,010113,0,E*6E
$GPRMC,100156,A,3800.8284847157970887,N,110.073893030986829,W,,308.6,010113,0,E*65
$GPRMC,100157,A,3800.823768621596912,N,110.075136213588852,W,,309.0,010113,0,E*5C
$GPRMC,100158,A,3800.8190719631964782,N,110.076271943387898,W,,308.9,010113,0,E*61
$GPRMC,100159,A,3800.8190719631964782,N,110.076271943387898,W,,308.8,010113,0,E*61
$GPRMC,100200,A,3800.8143609173966126,N,110.077387947588775,W,,307.9,010113,0,E*6D
$GPRMC,100201,A,3800.8096862273970373,N,110.078592853189363,W,,308.2,010113,0,E*6B
$GPRMC,100202,A,3800.8050819245964647,N,110.079890368791178,W,,308.6,010113,0,E*62
$GPRMC,100203,A,3800.8004795879956816,N,110.081384254790642,W,,308.5,010113,0,E*6C
$GPRMC,100204,A,3800.7960095357957186,N,110.083146700192662,W,,310.8,010113,0,E*66
$GPRMC,100205,A,3800.7960095357957186,N,110.083146700192662,W,,311.0,010113,0,E*6E
$GPRMC,100206,A,3800.791725020996239,N,110.085066449993562,W,,310.6,010113,0,E*59
$GPRMC,100207,A,3800.7874477883950703,N,110.087423540394745,W,,313.0,010113,0,E*68
$GPRMC,100208,A,3800.783350625995638,N,110.090056316995408,W,,314.5,010113,0,E*51
$GPRMC,100209,A,3800.7793391759959434,N,110.093178341396332,W,,316.8,010113,0,E*6B
$GPRMC,100210,A,3800.7756642275957404,N,110.096764353598623,W,,318.1,010113,0,E*60
$GPRMC,100211,A,3800.7721137959956081,N,110.100911368200514,W,,320.8,010113,0,E*60
$GPRMC,100212,A,3800.7688957559953735,N,110.105682305402963,W,,323.1,010113,0,E*67
$GPRMC,100213,A,3800.7688957559953735,N,110.105682305402963,W,,325.0,010113,0,E*61
$GPRMC,100214,A,3800.7659530121944158,N,110.110833946205645,W,,326.7,010113,0,E*64
$GPRMC,100215,A,3800.7634177073950354,N,110.116411161008765,W,,328.9,010113,0,E*6F
$GPRMC,100216,A,3800.7612873821945243,N,110.122060207811527,W,,329.7,010113,0,E*64
$GPRMC,100217,A,3800.7595803029954595,N,110.127720480013993,W,,330.8,010113,0,E*63
$GPRMC,100218,A,3800.7582318953950562,N,110.133369474017151,W,,331.8,010113,0,E*67
$GPRMC,100219,A,3800.7572296883958529,N,110.13904358461871,W,,333.3,010113,0,E*59
$GPRMC,100220,A,3800.7567806189950943,N,110.14480911542153,W,,333.1,010113,0,E*55
$GPRMC,100221,A,3800.7567806189950943,N,110.14480911542153,W,,334.1,010113,0,E*53
$GPRMC,100222,A,3800.7568694393953024,N,110.15036371862374,W,,335.7,010113,0,E*53
$GPRMC,100223,A,3800.7571835243960834,N,110.1554907048269,W,,334.4,010113,0,E*6A
$GPRMC,100224,A,3800.7576399041953152,N,110.159934087029692,W,,336.7,010113,0,E*6F
$GPRMC,100225,A,3800.7582056825958716,N,110.163829465230453,W,,336.9,010113,0,E*65
$GPRMC,100226,A,3800.7589604585952259,N,110.167174938632705,W,,337.2,010113,0,E*63
$GPRMC,100227,A,3800.7596877809963587,N,110.170255767033405,W,,337.8,010113,0,E*65
$GPRMC,100228,A,3800.7605227739961151,N,110.173722041436474,W,,336.3,010113,0,E*65
$GPRMC,100229,A,3800.7605227739961151,N,110.173722041436474,W,,337.3,010113,0,E*65
$GPRMC,100230,A,3800.7616926869962981,N,110.177875724438103,W,,337.8,010113,0,E*64
$GPRMC,100231,A,3800.7626011895968077,N,110.182680744639455,W,,336.3,010113,0,E*65
$GPRMC,100232,A,3800.7633738305960946,N,110.188031847041866,W,,335.9,010113,0,E*69
$GPRMC,100233,A,3800.7638960399967232,N,110.193741162045914,W,,336.0,010113,0,E*64
$GPRMC,100234,A,3800.7642226883972114,N,110.199790877447521,W,,335.6,010113,0,E*66
$GPRMC,100235,A,3800.7643422077966022,N,110.20599875285117,W,,336.0,010113,0,E*50
$GPRMC,100236,A,3800.764246797596968,N,110.212377864053227,W,,335.7,010113,0,E*51
$GPRMC,100237,A,3800.764246797596968,N,110.212377864053227,W,,335.2,010113,0,E*55
$GPRMC,100238,A,3800.7638463071977242,N,110.218759362056321,W,,335.3,010113,0,E*67
$GPRMC,100239,A,3800.7632140115964603,N,110.225185189259808,W,,333.1,010113,0,E*6F
$GPRMC,100240,A,3800.7621653747970925,N,110.231482788663566,W,,334.0,010113,0,E*67
$GPRMC,100241,A,3800.7609357623975654,N,110.237678350266638,W,,331.3,010113,0,E*6D
$GPRMC,100242,A,3800.7595549907976817,N,110.243887800669032,W,,332.1,010113,0,E*67
$GPRMC,100243,A,3800.7584454239976424,N,110.249990403671404,W,,332.6,010113,0,E*6C
$GPRMC,100244,A,3800.7584454239976424,N,110.249990403671404,W,,332.8,010113,0,E*65
$GPRMC,100245,A,3800.7575216669967233,N,110.256181953674703,W,,333.7,010113,0,E*6A
$GPRMC,100246,A,3800.7567828293971957,N,110.262318305477699,W,,332.1,010113,0,E*6A
$GPRMC,100247,A,3800.7561235649977505,N,110.268501351681024,W,,333.7,010113,0,E*6C
$GPRMC,100248,A,3800.7556363973974101,N,110.274679626083,W,,334.6,010113,0,E*50
$GPRMC,100249,A,3800.7553867127975877,N,110.280373356086393,W,,335.2,010113,0,E*64
$GPRMC,100250,A,3800.7555347459971529,N,110.28545120408818,W,,334.4,010113,0,E*50
$GPRMC,100251,A,3800.755729718997884,N,110.290003782690746,W,,336.0,010113,0,E*55
$GPRMC,100252,A,3800.755729718997884,N,110.290003782690746,W,,336.2,010113,0,E*54
$GPRMC,100253,A,3800.7559168889974899,N,110.293883503292825,W,,337.1,010113,0,E*6F
$GPRMC,100254,A,3800.7563797133968819,N,110.297273404294769,W,,333.3,010113,0,E*6A
$GPRMC,100255,A,3800.7568967003983573,N,110.30050585629661,W,,336.8,010113,0,E*56
$GPRMC,100256,A,3800.7574810247973573,N,110.304194845297015,W,,337.0,010113,0,E*65
$GPRMC,100257,A,3800.7582474503976755,N,110.308455082299762,W,,338.2,010113,0,E*64
$GPRMC,100258,A,3800.7591511271978391,N,110.313076801301841,W,,338.6,010113,0,E*6D
$GPRMC,100259,A,3800.7591511271978391,N,110.313076801301841,W,,335.9,010113,0,E*6E
$GPRMC,100300,A,3800.7602249369983838,N,110.318016747704245,W,,338.3,010113,0,E*6C
$GPRMC,100301,A,3800.761581683398731,N,110.323207330907032,W,,338.4,010113,0,E*5C
$GPRMC,100302,A,3800.7631734755982222,N,110.328567190909448,W,,338.0,010113,0,E*6D
$GPRMC,100303,A,3800.765009281198985,N,110.334112949512138,W,,338.2,010113,0,E*5A
$GPRMC,100304,A,3800.7671192915985614,N,110.339703207714246,W,,338.9,010113,0,E*67
$GPRMC,100305,A,3800.7693668597985948,N,110.34536052611768,W,,338.3,010113,0,E*57
$GPRMC,100306,A,3800.7719468285986864,N,110.35100375172,W,,338.4,010113,0,E*67
$GPRMC,100307,A,3800.7719468285986864,N,110.35100375172,W,,338.9,010113,0,E*6B
$GPRMC,100308,A,3800.7746668217991726,N,110.356282779722616,W,,338.8,010113,0,E*6C
$GPRMC,100309,A,3800.777424888600251,N,110.360848492925246,W,,338.7,010113,0,E*54
$GPRMC,100310,A,3800.7799030247993244,N,110.364924564126623,W,,339.2,010113,0,E*6D
$GPRMC,100311,A,3800.7820516163990021,N,110.368509469928554,W,,339.6,010113,0,E*65
$GPRMC,100312,A,3800.7840085398001406,N,110.37147505092927,W,,339.7,010113,0,E*54
$GPRMC,100313,A,3800.7840085398001406,N,110.37147505092927,W,,339.1,010113,0,E*53
$GPRMC,100314,A,3800.7858844152005418,N,110.373844402331267,W,,338.6,010113,0,E*6B
$GPRMC,100315,A,3800.787631388400456,N,110.375931848532414,W,,339.5,010113,0,E*50
$GPRMC,100316,A,3800.7893831574001808,N,110.378038651933297,W,,338.0,010113,0,E*68
$GPRMC,100317,A,3800.7913243181998553,N,110.3801808067338,W,,336.7,010113,0,E*61
$GPRMC,100318,A,3800.7936333227999626,N,110.382617437934236,W,,338.6,010113,0,E*6C
$GPRMC,100319,A,3800.7963613710009554,N,110.385203367136352,W,,338.8,010113,0,E*6E
$GPRMC,100320,A,3800.799262207800524,N,110.387685659537116,W,,338.3,010113,0,E*53
$GPRMC,100321,A,3800.799262207800524,N,110.387685659537116,W,,337.6,010113,0,E*58
$GPRMC,100322,A,3800.8022722956019379,N,110.390279977937622,W,,337.4,010113,0,E*68
$GPRMC,100323,A,3800.8054513206003833,N,110.392873954940125,W,,337.3,010113,0,E*6C
$GPRMC,100324,A,3800.8088616450017128,N,110.395491330740114,W,,337.4,010113,0,E*6B
$GPRMC,100325,A,3800.8125644244015007,N,110.397975010941632,W,,337.2,010113,0,E*68
$GPRMC,100326,A,3800.8164756684021768,N,110.400349951943504,W,,338.1,010113,0,E*65
$GPRMC,100327,A,3800.8205966022018174,N,110.40254228294431,W,,337.8,010113,0,E*5E
$GPRMC,100328,A,3800.8256113470021376,N,110.404875559944387,W,,336.7,010113,0,E*6A
$GPRMC,100329,A,3800.8256113470021376,N,110.404875559944387,W,,336.9,010113,0,E*65
$GPRMC,100330,A,3800.8300273398027969,N,110.406943260745445,W,,335.9,010113,0,E*67
$GPRMC,100331,A,3800.8346109288029879,N,110.408874222747059,W,,336.8,010113,0,E*60
$GPRMC,100332,A,3800.8392508716022462,N,110.410772214747691,W,,335.9,010113,0,E*65
$GPRMC,100333,A,3800.8440589164031564,N,110.412561441148771,W,,336.1,010113,0,E*6A
$GPRMC,100334,A,3800.8488861318036811,N,110.414403489748864,W,,335.6,010113,0,E*6D
$GPRMC,100335,A,3800.853865471202937,N,110.416149718350901,W,,336.8,010113,0,E*52
$GPRMC,100336,A,3800.8587150918035036,N,110.417920992750535,W,,335.9,010113,0,E*69
$GPRMC,100337,A,3800.8587150918035036,N,110.417920992750535,W,,336.5,010113,0,E*67
$GPRMC,100338,A,3800.8634259096039898,N,110.419631853752591,W,,336.3,010113,0,E*61
$GPRMC,100339,A,3800.8678471248038022,N,110.421251983352242,W,,336.3,010113,0,E*65
$GPRMC,100340,A,3800.8717666662043655,N,110.422614438753154,W,,334.9,010113,0,E*63
$GPRMC,100341,A,3800.8753030260045591,N,110.423838822154181,W,,336.9,010113,0,E*61
$GPRMC,100342,A,3800.877769419004153,N,110.424710967153562,W,,336.6,010113,0,E*5C
$GPRMC,100343,A,3800.8807968642042852,N,110.425691122354511,W,,335.5,010113,0,E*6A
$GPRMC,100344,A,3800.8840676754046228,N,110.426885552555895,W,,336.5,010113,0,E*65
$GPRMC,100345,A,3800.8840676754046228,N,110.426885552555895,W,,335.8,010113,0,E*6A
$GPRMC,100346,A,3800.8875748158054364,N,110.427776640755365,W,,335.6,010113,0,E*69
$GPRMC,100347,A,3800.890855786805389,N,110.428499331155102,W,,335.7,010113,0,E*58
$GPRMC,100348,A,3800.8937164572046186,N,110.42913006435549,W,,336.1,010113,0,E*5E
$GPRMC,100349,A,3800.8961784324064581,N,110.429604873756247,W,,335.2,010113,0,E*67
$GPRMC,100350,A,3800.8986651978052862,N,110.430052606356055,W,,335.0,010113,0,E*6F
$GPRMC,100351,A,3800.9013597456059586,N,110.43045002355679,W,,334.9,010113,0,E*59
$GPRMC,100352,A,3800.9040969306057889,N,110.430783027756952,W,,334.9,010113,0,E*64
$GPRMC,100353,A,3800.9040969306057889,N,110.430783027756952,W,,335.1,010113,0,E*6C
$GPRMC,100354,A,3800.9070994284051892,N,110.430980679756093,W,,335.1,010113,0,E*69
$GPRMC,100355,A,3800.9103441222060837,N,110.431064148757416,W,,334.7,010113,0,E*61
$GPRMC,100356,A,3800.913799503006345,N,110.431108535556039,W,,333.8,010113,0,E*59
$GPRMC,100357,A,3800.9176785366054219,N,110.431131372156317,W,,333.6,010113,0,E*67
$GPRMC,100358,A,3800.9220714480058234,N,110.430867722556965,W,,333.9,010113,0,E*62
$GPRMC,100359,A,3800.9265825330064104,N,110.430377890956564,W,,333.8,010113,0,E*60
$GPRMC,100400,A,3800.9265825330064104,N,110.430377890956564,W,,332.9,010113,0,E*6B
$GPRMC,100401,A,3800.9303745420065468,N,110.429381940755494,W,,332.6,010113,0,E*6B
$GPRMC,100402,A,3800.935701319807265,N,110.428681960355902,W,,332.8,010113,0,E*5A
$GPRMC,100403,A,3800.9402482446083127,N,110.427386651555498,W,,332.8,010113,0,E*67
$GPRMC,100404,A,3800.9448514152073528,N,110.425874630555132,W,,332.1,010113,0,E*6B
$GPRMC,100405,A,3800.9498779224075804,N,110.424283946552908,W,,331.1,010113,0,E*61
$GPRMC,100406,A,3800.9544068172078823,N,110.422094136152978,W,,330.9,010113,0,E*6A
$GPRMC,100407,A,3800.9544068172078823,N,110.422094136152978,W,,330.8,010113,0,E*6A
$GPRMC,100408,A,3800.9589209616078165,N,110.419685319151846,W,,330.2,010113,0,E*6B
$GPRMC,100409,A,3800.9637276258081329,N,110.41724959635066,W,,330.0,010113,0,E*56
$GPRMC,100410,A,3800.9684285814077498,N,110.414500388549474,W,,329.5,010113,0,E*68
$GPRMC,100411,A,3800.9729399466091593,N,110.411239403547764,W,,328.7,010113,0,E*6B
$GPRMC,100412,A,3800.9776504272078057,N,110.407726171345036,W,,328.9,010113,0,E*6F
$GPRMC,100413,A,3800.9821989492084526,N,110.403944149343074,W,,327.7,010113,0,E*66
$GPRMC,100414,A,3800.9866971018095683,N,110.399917722741222,W,,327.8,010113,0,E*6E
$GPRMC,100415,A,3800.9866971018095683,N,110.399917722741222,W,,326.6,010113,0,E*60
$GPRMC,100416,A,3800.9910101340095423,N,110.395711181539946,W,,327.7,010113,0,E*65
$GPRMC,100417,A,3800.9949192210088142,N,110.391609262938042,W,,327.7,010113,0,E*6A
$GPRMC,100418,A,3800.998702945808958,N,110.38787021953516,W,,327.9,010113,0,E*62
$GPRMC,100419,A,3801.002209119608466,N,110.384432952734652,W,,327.0,010113,0,E*58
$GPRMC,100420,A,3801.0051487800100745,N,110.381362909932715,W,,327.2,010113,0,E*69
$GPRMC,100421,A,3801.0051487800100745,N,110.381362909932715,W,,327.7,010113,0,E*6D
$GPRMC,100422,A,3801.007790937609343,N,110.378750182332176,W,,328.3,010113,0,E*5B
$GPRMC,100423,A,3801.008942419808534,N,110.376061489331029,W,,328.0,010113,0,E*52
$GPRMC,100424,A,3801.0106138194088032,N,110.374273737730126,W,,327.4,010113,0,E*69
$GPRMC,100425,A,3801.0120556416092086,N,110.37264415572868,W,,324.3,010113,0,E*59
$GPRMC,100426,A,3801.0139445406095149,N,110.370283210927633,W,,325.5,010113,0,E*64
$GPRMC,100427,A,3801.0158459316093627,N,110.367536238726967,W,,324.5,010113,0,E*65
$GPRMC,100428,A,3801.0158459316093627,N,110.367536238726967,W,,324.8,010113,0,E*67
$GPRMC,100429,A,3801.0186787542087927,N,110.365008773524597,W,,327.8,010113,0,E*68
$GPRMC,100430,A,3801.0208589046092698,N,110.36224338552454,W,,330.9,010113,0,E*5D
$GPRMC,100431,A,3801.0239356026104929,N,110.360350606921953,W,,333.5,010113,0,E*60
$GPRMC,100432,A,3801.026794441209944,N,110.359572772321904,W,,332.8,010113,0,E*5F
$GPRMC,100433,A,3801.0293344890104095,N,110.359139569322856,W,,333.6,010113,0,E*69
$GPRMC,100434,A,3801.0317089284096426,N,110.35875786072133,W,,332.9,010113,0,E*51
$GPRMC,100435,A,3801.0317089284096426,N,110.35875786072133,W,,333.4,010113,0,E*5C
$GPRMC,100436,A,3801.0336394518094494,N,110.358234591121827,W,,330.3,010113,0,E*66
$GPRMC,100437,A,3801.0356875290108292,N,110.357473133521186,W,,330.2,010113,0,E*67
$GPRMC,100438,A,3801.0381214116098647,N,110.356279853520762,W,,329.7,010113,0,E*64
$GPRMC,100439,A,3801.040502799609726,N,110.354853420119724,W,,329.7,010113,0,E*56
$GPRMC,100440,A,3801.0429373536111086,N,110.35345826771957,W,,330.3,010113,0,E*5B
$GPRMC,100441,A,3801.045141275410515,N,110.352169791118516,W,,329.1,010113,0,E*5B
$GPRMC,100442,A,3801.0478272624098395,N,110.350513521718527,W,,329.4,010113,0,E*68
$GPRMC,100443,A,3801.0478272624098395,N,110.350513521718527,W,,330.0,010113,0,E*65
$GPRMC,100444,A,3801.0509392512115312,N,110.348680563117787,W,,329.3,010113,0,E*6B
$GPRMC,100445,A,3801.0545640168110992,N,110.346725448116146,W,,330.3,010113,0,E*6C
$GPRMC,100446,A,3801.0585842136107715,N,110.34462727211551,W,,330.5,010113,0,E*5F
$GPRMC,100447,A,3801.0627474594109287,N,110.342560206114943,W,,330.1,010113,0,E*6A
$GPRMC,100448,A,3801.0670718898110465,N,110.340424112513901,W,,331.1,010113,0,E*6C
$GPRMC,100449,A,3801.0715774128117062,N,110.33841855311219,W,,330.6,010113,0,E*51
$GPRMC,100450,A,3801.076194022212178,N,110.336492034711249,W,,331.0,010113,0,E*59
$GPRMC,100451,A,3801.076194022212178,N,110.336492034711249,W,,331.1,010113,0,E*59
$GPRMC,100452,A,3801.0810326838115714,N,110.33455260971088,W,,332.0,010113,0,E*59
$GPRMC,100453,A,3801.0858370944114881,N,110.332805385109797,W,,332.2,010113,0,E*62
$GPRMC,100454,A,3801.0908453382121763,N,110.330979799908162,W,,331.4,010113,0,E*63
$GPRMC,100455,A,3801.095960538611962,N,110.329252963907969,W,,332.3,010113,0,E*57
$GPRMC,100456,A,3801.1008885024119763,N,110.32754505070729,W,,331.5,010113,0,E*53
$GPRMC,100457,A,3801.1056596514127648,N,110.325847429305956,W,,331.2,010113,0,E*62
$GPRMC,100458,A,3801.1101392334130367,N,110.323937949704987,W,,331.2,010113,0,E*64
$GPRMC,100459,A,3801.1101392334130367,N,110.323937949704987,W,,332.4,010113,0,E*60
$GPRMC,100500,A,3801.1145360166129592,N,110.321950863104231,W,,330.7,010113,0,E*6A
$GPRMC,100501,A,3801.1185822258123324,N,110.319813400902436,W,,331.1,010113,0,E*69
$GPRMC,100502,A,3801.1224715710140742,N,110.317544256701176,W,,331.3,010113,0,E*6B
$GPRMC,100503,A,3801.1262098338141868,N,110.315436712900485,W,,332.3,010113,0,E*64
$GPRMC,100504,A,3801.1301224452134306,N,110.313650534500924,W,,331.7,010113,0,E*67
$GPRMC,100505,A,3801.1342703466137039,N,110.312196923500064,W,,333.0,010113,0,E*64
$GPRMC,100506,A,3801.1386228114142227,N,110.310832521699083,W,,332.9,010113,0,E*65
$GPRMC,100507,A,3801.1386228114142227,N,110.310832521699083,W,,332.7,010113,0,E*6A
$GPRMC,100508,A,3801.1431684366131378,N,110.309492057497977,W,,333.9,010113,0,E*6F
$GPRMC,100509,A,3801.147639637214155,N,110.30831271549824,W,,334.7,010113,0,E*63
$GPRMC,100510,A,3801.152164294814213,N,110.307648085297858,W,,336.6,010113,0,E*54
$GPRMC,100511,A,3801.1565653908142792,N,110.307546195696569,W,,335.5,010113,0,E*68
$GPRMC,100512,A,3801.160526744414625,N,110.307313184497646,W,,335.2,010113,0,E*5B
$GPRMC,100513,A,3801.1638440208146505,N,110.306884046496512,W,,334.0,010113,0,E*65
$GPRMC,100514,A,3801.1668391896145636,N,110.306417215896095,W,,334.2,010113,0,E*67
$GPRMC,100515,A,3801.1668391896145636,N,110.306417215896095,W,,334.2,010113,0,E*66
$GPRMC,100516,A,3801.1699308732144686,N,110.305664192496792,W,,332.9,010113,0,E*68
$GPRMC,100517,A,3801.1729207116141538,N,110.304964261895503,W,,333.5,010113,0,E*67
$GPRMC,100518,A,3801.17572600801509,N,110.304163123895854,W,,333.7,010113,0,E*6E
$GPRMC,100519,A,3801.178702897815782,N,110.30337697689557,W,,333.8,010113,0,E*6B
$GPRMC,100520,A,3801.1821413964152327,N,110.302429831894555,W,,333.5,010113,0,E*6F
$GPRMC,100521,A,3801.185902794015874,N,110.30144577249371,W,,333.0,010113,0,E*67
$GPRMC,100522,A,3801.189889423815913,N,110.30029921209306,W,,333.2,010113,0,E*6E
$GPRMC,100523,A,3801.189889423815913,N,110.30029921209306,W,,333.4,010113,0,E*69
$GPRMC,100524,A,3801.194050499415198,N,110.299117317693618,W,,333.2,010113,0,E*51
$GPRMC,100525,A,3801.1983559260160348,N,110.297903824291627,W,,333.6,010113,0,E*6D
$GPRMC,100526,A,3801.2028585390159208,N,110.296581847891293,W,,333.4,010113,0,E*64
$GPRMC,100527,A,3801.207378214815833,N,110.295256763491714,W,,333.1,010113,0,E*56
$GPRMC,100528,A,3801.2117946486162623,N,110.293861259490678,W,,332.0,010113,0,E*6B
$GPRMC,100529,A,3801.216211515616834,N,110.292306673889202,W,,332.6,010113,0,E*58
$GPRMC,100530,A,3801.2206351878178623,N,110.290524990689253,W,,333.3,010113,0,E*6F
$GPRMC,100531,A,3801.2206351878178623,N,110.290524990689253,W,,332.4,010113,0,E*68
$GPRMC,100532,A,3801.2249312964165426,N,110.288678152888483,W,,332.1,010113,0,E*64
$GPRMC,100533,A,3801.2292069528176341,N,110.286497128885896,W,,331.5,010113,0,E*6E
$GPRMC,100534,A,3801.232929658217472,N,110.283737288485817,W,,331.4,010113,0,E*5A
$GPRMC,100535,A,3801.2374788666177494,N,110.28110014868426,W,,330.3,010113,0,E*5F
$GPRMC,100536,A,3801.2417928276175871,N,110.27830874408346,W,,330.5,010113,0,E*5D
$GPRMC,100537,A,3801.2458709982171001,N,110.275464889882052,W,,329.9,010113,0,E*67
$GPRMC,100538,A,3801.2496417456165432,N,110.272577680279614,W,,330.4,010113,0,E*6F
$GPRMC,100539,A,3801.2496417456165432,N,110.272577680279614,W,,330.4,010113,0,E*6E
$GPRMC,100540,A,3801.2530276110183536,N,110.269809303078521,W,,329.9,010113,0,E*65
$GPRMC,100541,A,3801.2558349702185012,N,110.267421009076676,W,,329.5,010113,0,E*65
$GPRMC,100542,A,3801.2587250322177113,N,110.265472106476906,W,,329.0,010113,0,E*65
$GPRMC,100543,A,3801.260695834818506,N,110.263302958274835,W,,328.9,010113,0,E*51
$GPRMC,100544,A,3801.2628432366183517,N,110.261307275474142,W,,331.2,010113,0,E*6B
$GPRMC,100545,A,3801.2650812066188166,N,110.258908597872903,W,,327.2,010113,0,E*65
$GPRMC,100546,A,3801.2650812066188166,N,110.258908597872903,W,,327.3,010113,0,E*67
$GPRMC,100547,A,3801.267175129818554,N,110.256393919271257,W,,328.4,010113,0,E*54
$GPRMC,100548,A,3801.2691931242186172,N,110.253995544071444,W,,327.8,010113,0,E*64
$GPRMC,100549,A,3801.2710103700186437,N,110.251803013270461,W,,326.4,010113,0,E*61
$GPRMC,100550,A,3801.2729947572186973,N,110.249220273069408,W,,326.3,010113,0,E*65
$GPRMC,100551,A,3801.2749994094180295,N,110.246461434067186,W,,326.5,010113,0,E*66
$GPRMC,100552,A,3801.2770350864180102,N,110.243459152866258,W,,326.2,010113,0,E*62
$GPRMC,100553,A,3801.279249933618587,N,110.24026553406381,W,,326.4,010113,0,E*6B
$GPRMC,100554,A,3801.279249933618587,N,110.24026553406381,W,,326.2,010113,0,E*6A
$GPRMC,100555,A,3801.2813595276186618,N,110.237194926063196,W,,325.1,010113,0,E*63
$GPRMC,100556,A,3801.2832059898188675,N,110.23418757966169,W,,325.0,010113,0,E*5A
$GPRMC,100557,A,3801.2848878702193645,N,110.23133289906053,W,,325.0,010113,0,E*5C
$GPRMC,100558,A,3801.2864660316186871,N,110.228391983458831,W,,324.3,010113,0,E*6C
$GPRMC,100559,A,3801.2879465550187774,N,110.225108376656863,W,,324.5,010113,0,E*6B
$GPRMC,100600,A,3801.2879465550187774,N,110.225108376656863,W,,324.9,010113,0,E*68
$GPRMC,100601,A,3801.2895084198190432,N,110.22171324545603,W,,323.3,010113,0,E*5F
$GPRMC,100602,A,3801.2910691332190538,N,110.218255542654124,W,,322.8,010113,0,E*68
$GPRMC,100603,A,3801.2926291314194316,N,110.214445252252276,W,,322.1,010113,0,E*60
$GPRMC,100604,A,3801.2943033858189779,N,110.21014964525012,W,,322.7,010113,0,E*57
$GPRMC,100605,A,3801.2960643966185614,N,110.205371637648458,W,,321.0,010113,0,E*67
$GPRMC,100606,A,3801.2976352278191428,N,110.199986659845376,W,,321.6,010113,0,E*68
$GPRMC,100607,A,3801.2992969530188248,N,110.194167442841856,W,,320.5,010113,0,E*6F
$GPRMC,100608,A,3801.2992969530188248,N,110.194167442841856,W,,320.8,010113,0,E*6D
$GPRMC,100609,A,3801.3009008946191614,N,110.188018824639006,W,,321.3,010113,0,E*6E
$GPRMC,100610,A,3801.3024343188193654,N,110.181605638836512,W,,320.0,010113,0,E*6A
$GPRMC,100611,A,3801.30378445741826,N,110.174963137832872,W,,320.1,010113,0,E*60
$GPRMC,100612,A,3801.3047887398184344,N,110.168285584229277,W,,318.3,010113,0,E*68
$GPRMC,100613,A,3801.3055770054180016,N,110.161750578627124,W,,318.6,010113,0,E*63
$GPRMC,100614,A,3801.3058247748193708,N,110.15556692522344,W,,317.6,010113,0,E*54
$GPRMC,100615,A,3801.3059987520185246,N,110.149707351620737,W,,317.8,010113,0,E*6C
$GPRMC,100616,A,3801.3059987520185246,N,110.149707351620737,W,,317.8,010113,0,E*6F
$GPRMC,100617,A,3801.306074223017788,N,110.14429832581829,W,,317.9,010113,0,E*69
$GPRMC,100618,A,3801.30598754461829,N,110.139549442216268,W,,317.6,010113,0,E*68
$GPRMC,100619,A,3801.3061221732179717,N,110.1357085764147,W,,317.6,010113,0,E*67
$GPRMC,100620,A,3801.3060547422180946,N,110.132603565612852,W,,316.4,010113,0,E*65
$GPRMC,100621,A,3801.3060728400178334,N,110.130370110011082,W,,317.1,010113,0,E*66
$GPRMC,100622,A,3801.3060728400178334,N,110.130370110011082,W,,318.1,010113,0,E*6A
$GPRMC,100623,A,3801.3059808342185875,N,110.128758494410697,W,,317.9,010113,0,E*6F
$GPRMC,100624,A,3801.3058369896185695,N,110.127721770010861,W,,316.5,010113,0,E*61
$GPRMC,100625,A,3801.3057691398181248,N,110.12705118601092,W,,317.2,010113,0,E*55
$GPRMC,100626,A,3801.3056317482177349,N,110.126600509809949,W,,318.3,010113,0,E*68
$GPRMC,100627,A,3801.3056143428185862,N,110.126171478009969,W,,317.4,010113,0,E*61
$GPRMC,100628,A,3801.3056143428185862,N,110.126171478009969,W,,317.1,010113,0,E*6B
$GPRMC,100629,A,3801.3055811832178676,N,110.125865164809923,W,,318.3,010113,0,E*65
$GPRMC,100630,A,3801.3055074522176824,N,110.125445484009319,W,,317.9,010113,0,E*66
$GPRMC,100631,A,3801.305558115617771,N,110.125015739410026,W,,317.1,010113,0,E*59
$GPRMC,100632,A,3801.3055933224184457,N,110.124610261808344,W,,317.8,010113,0,E*64
$GPRMC,100633,A,3801.3057558396185698,N,110.12453193780891,W,,316.7,010113,0,E*53
$GPRMC,100634,A,3801.3058560804189767,N,110.124501078009022,W,,316.9,010113,0,E*63
$GPRMC,100635,A,3801.3058560804189767,N,110.124501078009022,W,,316.7,010113,0,E*6C
$GPRMC,100636,A,3801.3059803410178006,N,110.124502093808374,W,,316.7,010113,0,E*6E
$GPRMC,100637,A,3801.3060835998179243,N,110.124511461009789,W,,316.7,010113,0,E*6B
$GPRMC,100638,A,3801.3061615104179225,N,110.124524537409712,W,,316.9,010113,0,E*68
$GPRMC,100639,A,3801.306199549217979,N,110.12450973360814,W,,317.5,010113,0,E*69
$GPRMC,100640,A,3801.3062133864181646,N,110.12449842060883,W,,317.3,010113,0,E*58
$GPRMC,100641,A,3801.306320791818365,N,110.124490445408355,W,,316.2,010113,0,E*52
$GPRMC,100642,A,3801.306320791818365,N,110.124490445408355,W,,315.6,010113,0,E*56
$GPRMC,100643,A,3801.3061539036169734,N,110.124048433808808,W,,313.0,010113,0,E*62
$GPRMC,100644,A,3801.3058147278178467,N,110.122115616608532,W,,313.8,010113,0,E*67
$GPRMC,100645,A,3801.3052205268184025,N,110.118815805605447,W,,314.5,010113,0,E*61
$GPRMC,100646,A,3801.3044003574174212,N,110.114554139404008,W,,315.3,010113,0,E*6B
$GPRMC,100647,A,3801.3040691472174615,N,110.109525256801867,W,,321.2,010113,0,E*69
$GPRMC,100648,A,3801.3049274718169102,N,110.10437225759954,W,,325.4,010113,0,E*5C
$GPRMC,100649,A,3801.3049274718169102,N,110.10437225759954,W,,329.1,010113,0,E*54
$GPRMC,100650,A,3801.306914628017779,N,110.099833411796816,W,,331.9,010113,0,E*57
$GPRMC,100651,A,3801.3102850038178815,N,110.096779888796297,W,,336.3,010113,0,E*64
$GPRMC,100652,A,3801.3145587894180721,N,110.09553303539585,W,,338.1,010113,0,E*59
$GPRMC,100653,A,3801.3193550028174172,N,110.095602869394646,W,,336.1,010113,0,E*6B
$GPRMC,100654,A,3801.3241706406178366,N,110.095897030794472,W,,336.1,010113,0,E*65
$GPRMC,100655,A,3801.328768507818836,N,110.096120077794515,W,,337.6,010113,0,E*53
$GPRMC,100656,A,3801.3327430596186218,N,110.096381474996093,W,,335.8,010113,0,E*67
$GPRMC,100657,A,3801.3362105952187164,N,110.096733135595146,W,,335.5,010113,0,E*6F
$GPRMC,100658,A,3801.3362105952187164,N,110.096733135595146,W,,336.1,010113,0,E*67
$GPRMC,100659,A,3801.3393310710183925,N,110.096992078196095,W,,336.5,010113,0,E*6E
$GPRMC,100700,A,3801.3421118652193798,N,110.097295136396468,W,,336.5,010113,0,E*6B
$GPRMC,100701,A,3801.344500930218544,N,110.097524949595474,W,,335.5,010113,0,E*5E
$GPRMC,100702,A,3801.3471283632195252,N,110.097864698395034,W,,335.9,010113,0,E*68
$GPRMC,100703,A,3801.3501463338187136,N,110.098434063596674,W,,337.4,010113,0,E*66
$GPRMC,100704,A,3801.3501463338187136,N,110.098434063596674,W,,337.9,010113,0,E*6C
$GPRMC,100705,A,3801.3531706668194943,N,110.099301402596467,W,,338.3,010113,0,E*60
$GPRMC,100706,A,3801.3564082920197507,N,110.10039207119734,W,,338.8,010113,0,E*53
$GPRMC,100707,A,3801.3597490194200645,N,110.10149256839819,W,,338.7,010113,0,E*50
$GPRMC,100708,A,3801.3625542378208877,N,110.10428005019949,W,,337.9,010113,0,E*55
$GPRMC,100709,A,3801.3672735942201086,N,110.102493610798135,W,,338.2,010113,0,E*61
$GPRMC,100710,A,3801.3705661416204862,N,110.104274051998887,W,,337.7,010113,0,E*6D
$GPRMC,100711,A,3801.3735739344210174,N,110.1061329396006,W,,337.5,010113,0,E*61
$GPRMC,100712,A,3801.3735739344210174,N,110.1061329396006,W,,338.2,010113,0,E*6A
$GPRMC,100713,A,3801.3755296506209902,N,110.110153941600899,W,,337.6,010113,0,E*66
$GPRMC,100714,A,3801.3783208524203872,N,110.111434585201637,W,,338.3,010113,0,E*65
$GPRMC,100715,A,3801.3809396904210303,N,110.112564127802983,W,,337.9,010113,0,E*69
$GPRMC,100716,A,3801.383093502020074,N,110.113514862003722,W,,337.3,010113,0,E*56
$GPRMC,100717,A,3801.3851134506209917,N,110.114658083403203,W,,336.2,010113,0,E*64
$GPRMC,100718,A,3801.3876608178222227,N,110.116432217404231,W,,337.4,010113,0,E*68
$GPRMC,100719,A,3801.3876608178222227,N,110.116432217404231,W,,337.7,010113,0,E*6A
$GPRMC,100720,A,3801.390791291421607,N,110.118113458204503,W,,338.0,010113,0,E*5B
$GPRMC,100721,A,3801.3940635468217977,N,110.119632988206382,W,,337.7,010113,0,E*6A
$GPRMC,100722,A,3801.3976155570213677,N,110.121324982206424,W,,338.1,010113,0,E*6F
$GPRMC,100723,A,3801.4012333866216409,N,110.123292507008518,W,,337.5,010113,0,E*62
$GPRMC,100724,A,3801.404885807423284,N,110.125447529408369,W,,337.2,010113,0,E*57
$GPRMC,100725,A,3801.4085757030221657,N,110.127392185209532,W,,338.2,010113,0,E*62
$GPRMC,100726,A,3801.4085757030221657,N,110.127392185209532,W,,337.3,010113,0,E*6F
$GPRMC,100727,A,3801.4123065558226244,N,110.129584989610908,W,,337.8,010113,0,E*66
$GPRMC,100728,A,3801.4161006768229356,N,110.131678525812347,W,,336.4,010113,0,E*65
$GPRMC,100729,A,3801.4198606788218626,N,110.133707202612761,W,,336.8,010113,0,E*61
$GPRMC,100730,A,3801.4236469176225341,N,110.135623108213183,W,,336.9,010113,0,E*6E
$GPRMC,100731,A,3801.4273944774240022,N,110.137675260014273,W,,336.9,010113,0,E*68
$GPRMC,100732,A,3801.431148097824746,N,110.13965076661474,W,,337.1,010113,0,E*6C
$GPRMC,100733,A,3801.4347867528233849,N,110.141451012616196,W,,337.1,010113,0,E*61
$GPRMC,100734,A,3801.4347867528233849,N,110.141451012616196,W,,335.7,010113,0,E*62
$GPRMC,100735,A,3801.4385389056232611,N,110.14301400601758,W,,336.0,010113,0,E*5A
$GPRMC,100736,A,3801.442274377223356,N,110.144564042417521,W,,336.3,010113,0,E*5D
$GPRMC,100737,A,3801.4459597722239437,N,110.14588500421901,W,,336.2,010113,0,E*58
$GPRMC,100738,A,3801.4485650022238872,N,110.14681024561812,W,,336.9,010113,0,E*51
$GPRMC,100739,A,3801.4517484270253078,N,110.148491433020133,W,,339.0,010113,0,E*6E
$GPRMC,100740,A,3801.4546616838239856,N,110.151083543420643,W,,341.9,010113,0,E*68
$GPRMC,100741,A,3801.4566897984244065,N,110.154711417022,W,,342.1,010113,0,E*5D
$GPRMC,100742,A,3801.4566897984244065,N,110.154711417022,W,,342.4,010113,0,E*5B
$GPRMC,100743,A,3801.4573943436244008,N,110.158933399224605,W,,342.6,010113,0,E*6F
$GPRMC,100744,A,3801.4566021780242977,N,110.163366717626964,W,,335.7,010113,0,E*67
$GPRMC,100745,A,3801.4542895740245854,N,110.167879808429143,W,,325.7,010113,0,E*6D
$GPRMC,100746,A,3801.4511919762252035,N,110.17282389843205,W,,323.9,010113,0,E*57
$GPRMC,100747,A,3801.4476782304252822,N,110.178216772832961,W,,323.4,010113,0,E*67
$GPRMC,100748,A,3801.4476782304252822,N,110.178216772832961,W,,323.2,010113,0,E*6E
$GPRMC,100749,A,3801.4439791476243613,N,110.183814858636545,W,,324.0,010113,0,E*66
$GPRMC,100750,A,3801.4401507522244117,N,110.189540387439093,W,,323.9,010113,0,E*6E
$GPRMC,100751,A,3801.4362629040242325,N,110.195343733841407,W,,322.9,010113,0,E*6E
$GPRMC,100752,A,3801.4323344268237292,N,110.201076507644196,W,,324.9,010113,0,E*6F
$GPRMC,100753,A,3801.4285930236245292,N,110.206688482847127,W,,325.4,010113,0,E*63
$GPRMC,100754,A,3801.4250516076239705,N,110.212097185250935,W,,325.6,010113,0,E*68
$GPRMC,100755,A,3801.4250516076239705,N,110.212097185250935,W,,327.1,010113,0,E*6C
$GPRMC,100756,A,3801.4217224608242418,N,110.217322812653435,W,,327.6,010113,0,E*64
$GPRMC,100757,A,3801.4190247054240501,N,110.22222654305419,W,,329.3,010113,0,E*52
$GPRMC,100758,A,3801.4171082418239678,N,110.227032634257256,W,,330.7,010113,0,E*63
$GPRMC,100759,A,3801.4152598338240807,N,110.231876169059824,W,,332.6,010113,0,E*60
$GPRMC,100800,A,3801.414636321023437,N,110.236931037662824,W,,333.0,010113,0,E*51
$GPRMC,100801,A,3801.4152189096239454,N,110.241977481064835,W,,334.4,010113,0,E*6B
$GPRMC,100802,A,3801.4146457344244823,N,110.24635367466713,W,,334.3,010113,0,E*5C
$GPRMC,100803,A,3801.4146457344244823,N,110.24635367466713,W,,329.6,010113,0,E*54
$GPRMC,100804,A,3801.4114508322239772,N,110.249041437667854,W,,321.7,010113,0,E*66
$GPRMC,100805,A,3801.4083538932234774,N,110.2505366538682,W,,311.9,010113,0,E*61
$GPRMC,100806,A,3801.4052362680233443,N,110.249757826868988,W,,312.2,010113,0,E*63
$GPRMC,100807,A,3801.4030911450235806,N,110.246897730066555,W,,310.2,010113,0,E*60
$GPRMC,100808,A,3801.4004986428234645,N,110.243161716665776,W,,309.1,010113,0,E*6D
$GPRMC,100809,A,3801.396606165023968,N,110.23952690466411,W,,308.3,010113,0,E*6C
$GPRMC,100810,A,3801.396606165023968,N,110.23952690466411,W,,307.6,010113,0,E*6E
$GPRMC,100811,A,3801.3922995786225556,N,110.23694429706223,W,,307.5,010113,0,E*56
$GPRMC,100812,A,3801.3872063412233615,N,110.234752910461316,W,,307.7,010113,0,E*63
$GPRMC,100813,A,3801.3824174424222235,N,110.232661828860468,W,,309.3,010113,0,E*61
$GPRMC,100814,A,3801.3735858792226452,N,110.233388259660753,W,,306.1,010113,0,E*64
$GPRMC,100815,A,3801.369754438221804,N,110.231263110058926,W,,306.5,010113,0,E*5E
$GPRMC,100816,A,3801.3656051922220058,N,110.229640984859657,W,,305.3,010113,0,E*6F
$GPRMC,100817,A,3801.3656051922220058,N,110.229640984859657,W,,307.8,010113,0,E*67
$GPRMC,100818,A,3801.3656051922220058,N,110.229640984859657,W,,304.8,010113,0,E*6B
$GPRMC,100819,A,3801.369964473022236,N,110.219493530453732,W,,309.4,010113,0,E*55
$GPRMC,100820,A,3801.3664706316217234,N,110.221440064255237,W,,316.9,010113,0,E*6E
$GPRMC,100821,A,3801.3621150504208401,N,110.225528284857486,W,,324.8,010113,0,E*63
$GPRMC,100822,A,3801.3612601134219915,N,110.229606679859216,W,,333.4,010113,0,E*62
$GPRMC,100823,A,3801.3621391224219792,N,110.23545990006214,W,,332.5,010113,0,E*58
$GPRMC,100824,A,3801.3651136836217859,N,110.237804499062273,W,,336.1,010113,0,E*60
$GPRMC,100825,A,3801.3651136836217859,N,110.237804499062273,W,,337.7,010113,0,E*66
$GPRMC,100826,A,3801.3690807582223385,N,110.239063750263027,W,,340.0,010113,0,E*6A
$GPRMC,100827,A,3801.3724031412216675,N,110.241213970865065,W,,341.3,010113,0,E*62
$GPRMC,100828,A,3801.3746378220230326,N,110.244260284265785,W,,341.5,010113,0,E*63
$GPRMC,100829,A,3801.3759927804225924,N,110.247796293067761,W,,342.2,010113,0,E*6B
$GPRMC,100830,A,3801.3760579122222794,N,110.251235754069171,W,,340.4,010113,0,E*69
$GPRMC,100831,A,3801.374880181822249,N,110.254605287471001,W,,335.8,010113,0,E*5B
$GPRMC,100832,A,3801.3735041730232922,N,110.257862547672364,W,,332.7,010113,0,E*60
$GPRMC,100833,A,3801.3735041730232922,N,110.257862547672364,W,,331.9,010113,0,E*6C
$GPRMC,100834,A,3801.372010356623008,N,110.260879690873388,W,,328.2,010113,0,E*53
$GPRMC,100835,A,3801.3699571260228538,N,110.262993485474263,W,,319.8,010113,0,E*68
$GPRMC,100836,A,3801.3676140486226984,N,110.264052713474761,W,,309.6,010113,0,E*61
$GPRMC,100837,A,3801.3646893708227026,N,110.263982301074837,W,,306.9,010113,0,E*6D
$GPRMC,100838,A,3801.3611809230226868,N,110.262830493674805,W,,305.4,010113,0,E*62
$GPRMC,100839,A,3801.3611809230226868,N,110.262830493674805,W,,305.0,010113,0,E*67
$GPRMC,100840,A,3801.3578020986220452,N,110.260863747073827,W,,305.4,010113,0,E*68
$GPRMC,100841,A,3801.3544383786221204,N,110.258898554472431,W,,306.7,010113,0,E*67
$GPRMC,100842,A,3801.352797401421384,N,110.255560222272063,W,,305.5,010113,0,E*51
$GPRMC,100843,A,3801.345023609421503,N,110.257997374271968,W,,303.1,010113,0,E*5A
$GPRMC,100844,A,3801.345023609421503,N,110.257997374271968,W,,305.1,010113,0,E*5B
$GPRMC,100845,A,3801.345023609421503,N,110.257997374271968,W,,312.9,010113,0,E*54
$GPRMC,100846,A,3801.345023609421503,N,110.257997374271968,W,,320.9,010113,0,E*56
$GPRMC,100847,A,3801.345023609421503,N,110.257997374271968,W,,327.4,010113,0,E*5D
$GPRMC,100848,A,3801.345023609421503,N,110.257997374271968,W,,330.6,010113,0,E*56
$GPRMC,100849,A,3801.345023609421503,N,110.257997374271968,W,,329.4,010113,0,E*5D
$GPRMC,100850,A,3801.345023609421503,N,110.257997374271968,W,,329.4,010113,0,E*55
$GPRMC,100851,A,3801.345023609421503,N,110.257997374271968,W,,330.4,010113,0,E*5C
$GPRMC,100852,A,3801.345023609421503,N,110.257997374271968,W,,330.0,010113,0,E*5B
$GPRMC,100853,A,3801.345023609421503,N,110.257997374271968,W,,330.5,010113,0,E*5F
$GPRMC,100854,A,3801.345023609421503,N,110.257997374271968,W,,330.3,010113,0,E*5E
$GPRMC,100855,A,3801.3361855530219202,N,110.264399440875899,W,,330.3,010113,0,E*64
$GPRMC,100856,A,3801.3364789656210974,N,110.26416948067471,W,,329.5,010113,0,E*52
$GPRMC,100857,A,3801.3365396784207917,N,110.264072573474724,W,,330.1,010113,0,E*6A
$GPRMC,100858,A,3801.3365396784207917,N,110.264072573474724,W,,330.4,010113,0,E*60
$GPRMC,100859,A,3801.336767059220847,N,110.263828287074471,W,,330.2,010113,0,E*55
$GPRMC,100900,A,3801.3369544560218571,N,110.263633756875468,W,,329.7,010113,0,E*6F
$GPRMC,100901,A,3801.3368874540215359,N,110.26365033967588,W,,330.0,010113,0,E*51
$GPRMC,100902,A,3801.3369681798219801,N,110.263719606675297,W,,329.9,010113,0,E*62
$GPRMC,100903,A,3801.3369681798219801,N,110.263719606675297,W,,329.5,010113,0,E*6F
$GPRMC,100904,A,3801.3371178822215768,N,110.263520559075241,W,,329.7,010113,0,E*6C
$GPRMC,100905,A,3801.337016644221194,N,110.263576972274727,W,,329.9,010113,0,E*57
$GPRMC,100906,A,3801.3370867974207101,N,110.263505584274494,W,,330.1,010113,0,E*64
$GPRMC,100907,A,3801.3370185708213,N,110.263566916274307,W,,330.2,010113,0,E*5C
$GPRMC,100908,A,3801.336903261621245,N,110.263585930275148,W,,330.1,010113,0,E*5A
$GPRMC,100909,A,3801.336903261621245,N,110.263585930275148,W,,329.9,010113,0,E*5B
$GPRMC,100910,A,3801.3365850288224124,N,110.263833492075648,W,,330.0,010113,0,E*62
$GPRMC,100911,A,3801.3364648704214233,N,110.26389695587589,W,,330.1,010113,0,E*59
$GPRMC,100912,A,3801.3365288214218651,N,110.263891168275023,W,,330.1,010113,0,E*60
$GPRMC,100913,A,3801.3364676322211722,N,110.263953893474632,W,,329.8,010113,0,E*6F
$GPRMC,100914,A,3801.3364771560218003,N,110.26388354947606,W,,330.0,010113,0,E*56
$GPRMC,100915,A,3801.3366246798214831,N,110.263821448275717,W,,330.2,010113,0,E*6C
$GPRMC,100916,A,3801.3366246798214831,N,110.263821448275717,W,,330.1,010113,0,E*6C
$GPRMC,100917,A,3801.3366390714210752,N,110.263767979275968,W,,330.0,010113,0,E*68
$GPRMC,100918,A,3801.336653349021617,N,110.26375066927487,W,,330.0,010113,0,E*64
$GPRMC,100919,A,3801.3366663942208845,N,110.263688578275634,W,,330.3,010113,0,E*6A
$GPRMC,100920,A,3801.3367100202218296,N,110.263592285475633,W,,330.4,010113,0,E*62
$GPRMC,100921,A,3801.3368445876207602,N,110.26349671867592,W,,330.2,010113,0,E*5B
$GPRMC,100922,A,3801.3368445876207602,N,110.26349671867592,W,,330.4,010113,0,E*5E
$GPRMC,100923,A,3801.3367787556212818,N,110.263527937875118,W,,329.5,010113,0,E*6F
$GPRMC,100924,A,3801.33688798322126,N,110.263494322875935,W,,329.9,010113,0,E*6D
$GPRMC,100925,A,3801.3369231042217677,N,110.263353452474444,W,,329.9,010113,0,E*6B
$GPRMC,100926,A,3801.3368848980206849,N,110.263265739075592,W,,330.3,010113,0,E*6E
$GPRMC,100927,A,3801.3368848980206849,N,110.263265739075592,W,,329.9,010113,0,E*6D
$GPRMC,100928,A,3801.3366758436217197,N,110.263370582475716,W,,329.9,010113,0,E*65
$GPRMC,100929,A,3801.336643717821886,N,110.263410772275776,W,,329.9,010113,0,E*53
